$PVER,"Tempo V1 0.1.0 (0a5cd0e-dirty)",101*7C
$PSFC,214*1D
$PST,89,ARMED,LOGGING,manual_start*6F
$PENV,339,1005.47,213.25,-1.00*36
$PENV,589,1005.47,213.23,-1.00*3D
$PENV,840,1005.46,213.33,-1.00*35
$GNVTG,,T,,M,0.081,N,0.150,K,A*30
$GNGGA,161608.00,3259.18605,N,09643.38362,W,1,12,0.69,202.9,M,-25.3,M,,*77
$PTH,936*5C
$PENV,1090,1005.46,213.58,-1.00*0C
$PENV,1341,1005.46,213.41,-1.00*0B
$PENV,1591,1005.47,213.13,-1.00*06
$PENV,1841,1005.47,213.28,-1.00*0E
$GNVTG,,T,,M,0.033,N,0.061,K,A*3A
$GNGGA,161609.00,3259.18609,N,09643.38358,W,1,12,0.69,202.8,M,-25.3,M,,*72
$PTH,1950*6D
$PENV,2092,1005.47,213.10,-1.00*00
$PENV,2342,1005.47,213.05,-1.00*0A
$PENV,2593,1005.48,213.02,-1.00*08
$PENV,2843,1005.48,212.88,-1.00*0B
$GNVTG,,T,,M,0.143,N,0.265,K,A*3A
$GNGGA,161610.00,3259.18611,N,09643.38355,W,1,12,0.69,202.5,M,-25.3,M,,*73
$PTH,2940*6F
$PENV,3094,1005.47,213.04,-1.00*02
$PENV,3344,1005.47,213.27,-1.00*0D
$PENV,3594,1005.47,213.18,-1.00*0A
$PENV,3845,1005.48,212.78,-1.00*03
$GNVTG,,T,,M,0.118,N,0.218,K,A*3E
$GNGGA,161611.00,3259.18615,N,09643.38350,W,1,12,0.69,202.3,M,-25.3,M,,*75
$PTH,3941*6F
$PENV,4095,1005.49,212.69,-1.00*00
$PENV,4346,1005.48,213.01,-1.00*03
$PENV,4596,1005.46,213.45,-1.00*06
$PENV,4847,1005.47,213.19,-1.00*0F
$GNVTG,,T,,M,0.019,N,0.035,K,A*33
$GNGGA,161612.00,3259.18621,N,09643.38348,W,1,12,0.70,202.4,M,-25.3,M,,*77
$PTH,4942*6B
$PENV,5097,1005.47,213.12,-1.00*00
$PENV,5347,1005.48,212.98,-1.00*02
$PENV,5598,1005.49,212.76,-1.00*07
$PENV,5848,1005.48,212.93,-1.00*0D
$GNVTG,,T,,M,0.217,N,0.402,K,A*3F
$GNGGA,161613.00,3259.18625,N,09643.38342,W,1,12,0.70,202.6,M,-25.3,M,,*7A
$PTH,5940*68
$PENV,6099,1005.50,212.31,-1.00*0B
$PENV,6349,1005.49,212.71,-1.00*09
$PENV,6600,1005.48,213.02,-1.00*05
$PENV,6850,1005.48,212.89,-1.00*0C
$GNVTG,,T,,M,0.095,N,0.176,K,A*31
$GNGGA,161614.00,3259.18628,N,09643.38339,W,1,12,0.70,202.6,M,-25.3,M,,*7C
$PTH,6933*6F
$PENV,7100,1005.48,212.93,-1.00*0A
$PENV,7351,1005.48,213.02,-1.00*05
$PENV,7601,1005.49,212.66,-1.00*07
$PENV,7852,1005.49,212.49,-1.00*02
$GNVTG,,T,,M,0.274,N,0.508,K,A*31
$GNGGA,161615.00,3259.18633,N,09643.38338,W,1,12,0.71,202.9,M,-25.3,M,,*78
$PTH,7941*6B
$PENV,8102,1005.48,212.79,-1.00*03
$PENV,8353,1005.48,212.77,-1.00*0B
$PENV,8603,1005.49,212.55,-1.00*0A
$PENV,8854,1005.48,212.84,-1.00*0B
$GNVTG,,T,,M,0.082,N,0.153,K,A*30
$GNGGA,161616.00,3259.18643,N,09643.38336,W,1,12,0.69,203.5,M,-25.3,M,,*76
$PTH,8931*63
$PENV,9104,1005.49,212.76,-1.00*0A
$PENV,9354,1005.50,212.45,-1.00*05
$PENV,9605,1005.50,212.43,-1.00*02
$PENV,9855,1005.48,212.86,-1.00*09
$GNVTG,,T,,M,0.170,N,0.314,K,A*3D
$GNGGA,161617.00,3259.18652,N,09643.38334,W,1,12,0.73,203.7,M,-25.3,M,,*7C
$PTH,9939*6A
$PENV,10106,1005.47,213.05,-1.00*3B
$PENV,10356,1005.48,212.78,-1.00*38
$PENV,10606,1005.46,213.40,-1.00*3C
$PENV,10857,1005.49,212.74,-1.00*3F
$GNVTG,,T,,M,0.144,N,0.267,K,A*3F
$GNGGA,161618.00,3259.18662,N,09643.38334,W,1,12,0.73,204.0,M,-25.3,M,,*70
$PTH,10947*5B
$PENV,11107,1005.49,212.71,-1.00*37
$PENV,11358,1005.48,212.93,-1.00*32
$PENV,11608,1005.48,212.97,-1.00*36
$PENV,11859,1005.48,212.78,-1.00*3D
$GNVTG,,T,,M,0.049,N,0.092,K,A*3B
$GNGGA,161619.00,3259.18670,N,09643.38333,W,1,12,0.73,204.2,M,-25.3,M,,*77
$PTH,11949*54
$PENV,12109,1005.48,212.78,-1.00*32
$PENV,12360,1005.48,212.85,-1.00*3D
$PENV,12610,1005.47,213.22,-1.00*3C
$PENV,12860,1005.48,212.99,-1.00*3B
$GNVTG,,T,,M,0.106,N,0.195,K,A*37
$GNGGA,161620.00,3259.18674,N,09643.38332,W,1,12,0.73,204.3,M,-25.3,M,,*79
$PTH,12954*5B
$PENV,13111,1005.48,212.95,-1.00*39
$PENV,13361,1005.48,212.79,-1.00*3E
$PENV,13612,1005.48,212.84,-1.00*3D
$PENV,13862,1005.50,212.47,-1.00*32
$GNVTG,,T,,M,0.259,N,0.479,K,A*39
$GNGGA,161621.00,3259.18681,N,09643.38329,W,1,12,0.73,204.5,M,-25.3,M,,*7E
$PTH,13961*5C
$PENV,14113,1005.49,212.62,-1.00*35
$PENV,14363,1005.49,212.69,-1.00*3B
$PENV,14614,1005.49,212.61,-1.00*36
$PENV,14864,1005.49,212.62,-1.00*3C
$GNVTG,,T,,M,0.113,N,0.209,K,A*35
$GNGGA,161622.00,3259.18687,N,09643.38328,W,1,12,0.73,204.6,M,-25.3,M,,*79
$PTH,14950*59
$PENV,15114,1005.49,212.66,-1.00*37
$PENV,15365,1005.49,212.55,-1.00*33
$PENV,15615,1005.48,212.81,-1.00*39
$PENV,15866,1005.49,212.73,-1.00*3F
$GNVTG,,T,,M,0.094,N,0.174,K,A*32
$GNGGA,161623.00,3259.18689,N,09643.38324,W,1,12,0.70,204.8,M,-25.3,M,,*77
$PTH,15948*51
$PENV,16116,1005.49,212.53,-1.00*30
$PENV,16367,1005.50,212.45,-1.00*3B
$PENV,16617,1005.48,213.00,-1.00*30
$PENV,16867,1005.49,212.73,-1.00*3D
$GNVTG,,T,,M,0.040,N,0.074,K,A*3A
$GNGGA,161624.00,3259.18693,N,09643.38317,W,1,12,0.74,205.0,M,-25.3,M,,*76
$PTH,16940*5A
$PENV,17118,1005.49,212.64,-1.00*3B
$PENV,17368,1005.48,212.81,-1.00*34
$PENV,17619,1005.49,212.69,-1.00*30
$PENV,17869,1005.49,212.52,-1.00*31
$GNVTG,,T,,M,0.055,N,0.103,K,A*3F
$GNGGA,161625.00,3259.18695,N,09643.38317,W,1,12,0.73,205.1,M,-25.3,M,,*77
$PTH,17945*5E
$PENV,18120,1005.50,212.46,-1.00*37
$PENV,18370,1005.49,212.54,-1.00*3B
$PENV,18620,1005.51,212.20,-1.00*31
$PENV,18871,1005.49,212.73,-1.00*34
$GNVTG,,T,,M,0.021,N,0.039,K,A*34
$GNGGA,161626.00,3259.18698,N,09643.38312,W,1,12,0.69,205.0,M,-25.3,M,,*76
$PTH,18948*5C
$PENV,19121,1005.49,212.58,-1.00*30
$PENV,19372,1005.48,212.86,-1.00*36
$PENV,19622,1005.48,212.82,-1.00*32
$PENV,19873,1005.48,212.84,-1.00*3E
$GNVTG,,T,,M,0.087,N,0.161,K,A*34
$GNGGA,161627.00,3259.18699,N,09643.38308,W,1,12,0.73,204.9,M,-25.3,M,,*7E
$PTH,19946*53
$PENV,20123,1005.51,212.18,-1.00*35
$PENV,20373,1005.50,212.47,-1.00*39
$PENV,20624,1005.48,212.79,-1.00*3A
$PENV,20874,1005.48,212.78,-1.00*30
$GNVTG,,T,,M,0.017,N,0.031,K,A*39
$GNGGA,161628.00,3259.18697,N,09643.38307,W,1,12,0.84,204.9,M,-25.3,M,,*78
$PTH,20938*50
$PENV,21125,1005.48,212.84,-1.00*3F
$PENV,21375,1005.49,212.69,-1.00*3A
$PENV,21626,1005.49,212.56,-1.00*35
$PENV,21876,1005.49,212.61,-1.00*3A
$GNVTG,,T,,M,0.166,N,0.308,K,A*37
$GNGGA,161629.00,3259.18695,N,09643.38308,W,1,12,0.70,205.0,M,-25.3,M,,*77
$PTH,21944*5A
$PENV,22126,1005.49,212.60,-1.00*34
$PENV,22377,1005.48,213.00,-1.00*34
$PENV,22627,1005.48,212.92,-1.00*3E
$PENV,22878,1005.49,212.49,-1.00*3D
$GNVTG,,T,,M,0.114,N,0.211,K,A*3B
$GNGGA,161630.00,3259.18690,N,09643.38309,W,1,12,0.70,205.0,M,-25.3,M,,*7B
$PTH,22946*5B
$PENV,23128,1005.49,212.59,-1.00*31
$PENV,23379,1005.49,212.63,-1.00*3E
$PENV,23629,1005.48,212.92,-1.00*31
$PENV,23879,1005.48,212.82,-1.00*3B
$GNVTG,,T,,M,0.097,N,0.180,K,A*3A
$GNGGA,161631.00,3259.18689,N,09643.38306,W,1,12,0.70,204.9,M,-25.3,M,,*75
$PTH,23946*5A
$PENV,24130,1005.49,212.62,-1.00*37
$PENV,24380,1005.50,212.42,-1.00*34
$PENV,24631,1005.49,212.54,-1.00*34
$PENV,24881,1005.49,212.74,-1.00*33
$GNVTG,,T,,M,0.011,N,0.021,K,A*3E
$GNGGA,161632.00,3259.18689,N,09643.38304,W,1,12,0.70,205.0,M,-25.3,M,,*7C
$PTH,24948*53
$PENV,25132,1005.47,213.07,-1.00*38
$PENV,25382,1005.50,212.47,-1.00*32
$PENV,25632,1005.50,212.39,-1.00*35
$PENV,25883,1005.49,212.72,-1.00*36
$GNVTG,,T,,M,0.104,N,0.192,K,A*32
$GNGGA,161633.00,3259.18686,N,09643.38300,W,1,12,0.70,204.9,M,-25.3,M,,*7E
$PTH,25957*5C
$PENV,26133,1005.49,212.63,-1.00*37
$PENV,26384,1005.48,212.86,-1.00*33
$PENV,26634,1005.48,212.98,-1.00*32
$PENV,26885,1005.50,212.34,-1.00*39
$GNVTG,,T,,M,0.159,N,0.295,K,A*3E
$GNGGA,161634.00,3259.18687,N,09643.38297,W,1,12,0.67,204.9,M,-25.3,M,,*71
$PTH,26941*58
$PENV,27135,1005.49,212.73,-1.00*31
$PENV,27385,1005.48,212.97,-1.00*33
$PENV,27636,1005.49,212.73,-1.00*35
$PENV,27886,1005.49,212.71,-1.00*32
$GNVTG,,T,,M,0.090,N,0.166,K,A*35
$GNGGA,161635.00,3259.18683,N,09643.38296,W,1,12,0.67,204.5,M,-25.3,M,,*79
$PTH,27946*5E
$PENV,28137,1005.48,212.92,-1.00*32
$PENV,28387,1005.48,212.79,-1.00*3E
$PENV,28638,1005.49,212.73,-1.00*34
$PENV,28888,1005.50,212.41,-1.00*38
$GNVTG,,T,,M,0.111,N,0.206,K,A*38
$GNGGA,161636.00,3259.18681,N,09643.38293,W,1,12,0.67,204.6,M,-25.3,M,,*7E
$PTH,28949*5E
$PENV,29138,1005.48,212.87,-1.00*38
$PENV,29389,1005.49,212.49,-1.00*33
$PENV,29639,1005.48,212.79,-1.00*3F
$PENV,29890,1005.50,212.30,-1.00*36
$GNVTG,,T,,M,0.186,N,0.345,K,A*30
$GNGGA,161637.00,3259.18676,N,09643.38295,W,1,12,0.67,204.4,M,-25.3,M,,*73
$PTH,29939*58
$PENV,30140,1005.49,212.52,-1.00*36
$PENV,30391,1005.49,212.58,-1.00*32
$PENV,30641,1005.49,212.50,-1.00*32
$PENV,30891,1005.48,212.97,-1.00*3B
$GNVTG,,T,,M,0.045,N,0.083,K,A*37
$GNGGA,161638.00,3259.18675,N,09643.38294,W,1,12,0.69,204.4,M,-25.3,M,,*70
$PTH,30936*5F
$PENV,31142,1005.50,212.47,-1.00*39
$PENV,31392,1005.49,212.64,-1.00*3F
$PENV,31643,1005.50,212.36,-1.00*39
$PENV,31893,1005.49,212.51,-1.00*33
$GNVTG,,T,,M,0.083,N,0.154,K,A*36
$GNGGA,161639.00,3259.18675,N,09643.38290,W,1,12,0.72,204.4,M,-25.3,M,,*7F
$PTH,31931*59
$PENV,32144,1005.49,212.66,-1.00*37
$PENV,32394,1005.48,212.89,-1.00*38
$PENV,32644,1005.48,212.79,-1.00*3F
$PENV,32895,1005.49,212.73,-1.00*36
$GNVTG,,T,,M,0.108,N,0.200,K,A*36
$GNGGA,161640.00,3259.18672,N,09643.38289,W,1,12,0.70,204.1,M,-25.3,M,,*79
$PTH,32930*5B
$PENV,33145,1005.49,212.54,-1.00*36
$PENV,33396,1005.50,212.40,-1.00*37
$PENV,33646,1005.51,212.14,-1.00*3F
$PENV,33897,1005.50,212.32,-1.00*38
$GNVTG,,T,,M,0.073,N,0.134,K,A*3F
$GNGGA,161641.00,3259.18672,N,09643.38292,W,1,12,0.72,204.0,M,-25.3,M,,*71
$PTH,33932*58
$PENV,34147,1005.50,212.29,-1.00*31
$PENV,34397,1005.51,212.14,-1.00*31
$PENV,34648,1005.50,212.43,-1.00*35
$PENV,34898,1005.50,212.41,-1.00*34
$GNVTG,,T,,M,0.151,N,0.280,K,A*32
$GNGGA,161642.00,3259.18669,N,09643.38290,W,1,12,0.75,203.9,M,-25.3,M,,*73
$PTH,34935*58
$PENV,35149,1005.50,212.47,-1.00*36
$PENV,35399,1005.51,212.05,-1.00*3E
$PENV,35650,1005.51,212.16,-1.00*3C
$PENV,35900,1005.50,212.27,-1.00*35
$GNVTG,,T,,M,0.133,N,0.247,K,A*3D
$GNGGA,161643.00,3259.18664,N,09643.38285,W,1,12,0.78,203.9,M,-25.3,M,,*76
$PTH,35935*59
$PENV,36150,1005.50,212.29,-1.00*35
$PENV,36401,1005.50,212.31,-1.00*3D
$PENV,36651,1005.51,212.01,-1.00*38
$PENV,36902,1005.51,212.17,-1.00*36
$GNVTG,,T,,M,0.201,N,0.372,K,A*38
$GNGGA,161644.00,3259.18662,N,09643.38285,W,1,12,0.80,204.0,M,-25.3,M,,*7E
$PTH,36945*5D
$PENV,37152,1005.50,212.22,-1.00*3D
$PENV,37403,1005.51,212.10,-1.00*3C
$PENV,37653,1005.51,211.97,-1.00*37
$PENV,37903,1005.52,211.75,-1.00*32
$GNVTG,,T,,M,0.049,N,0.090,K,A*39
$GNGGA,161645.00,3259.18659,N,09643.38289,W,1,12,0.70,204.1,M,-25.3,M,,*75
$PTH,37935*5B
$PENV,38154,1005.51,212.02,-1.00*37
$PENV,38404,1005.50,212.39,-1.00*3E
$PENV,38655,1005.50,212.32,-1.00*33
$PENV,38905,1005.50,212.40,-1.00*3C
$GNVTG,,T,,M,0.070,N,0.130,K,A*38
$GNGGA,161646.00,3259.18655,N,09643.38296,W,1,12,0.70,204.1,M,-25.3,M,,*74
$PTH,38939*58
$PENV,39156,1005.50,212.22,-1.00*37
$PENV,39406,1005.51,212.21,-1.00*35
$PENV,39656,1005.50,212.28,-1.00*3A
$PENV,39907,1005.50,212.31,-1.00*39
$GNVTG,,T,,M,0.051,N,0.094,K,A*34
$GNGGA,161647.00,3259.18652,N,09643.38300,W,1,12,0.71,204.1,M,-25.3,M,,*7D
$PTH,39936*56
$PENV,40157,1005.51,212.21,-1.00*3A
$PENV,40408,1005.50,212.27,-1.00*32
$PENV,40658,1005.51,212.14,-1.00*34
$PENV,40909,1005.51,212.05,-1.00*3F
$GNVTG,,T,,M,0.165,N,0.305,K,A*39
$GNGGA,161648.00,3259.18655,N,09643.38304,W,1,12,0.72,204.5,M,-25.3,M,,*76
$PTH,40939*57
$PENV,41159,1005.51,212.07,-1.00*31
$PENV,41409,1005.50,212.33,-1.00*37
$PENV,41660,1005.49,212.61,-1.00*35
$PENV,41910,1005.49,212.49,-1.00*37
$GNVTG,,T,,M,0.261,N,0.483,K,A*37
$GNGGA,161649.00,3259.18653,N,09643.38311,W,1,12,0.76,204.6,M,-25.3,M,,*72
$PTH,41943*5B
$PENV,42161,1005.51,212.21,-1.00*3D
$PENV,42411,1005.50,212.34,-1.00*3A
$PENV,42662,1005.50,212.42,-1.00*3D
$PENV,42912,1005.50,212.36,-1.00*36
$GNVTG,,T,,M,0.298,N,0.552,K,A*3C
$GNGGA,161650.00,3259.18646,N,09643.38321,W,1,12,0.76,204.6,M,-25.3,M,,*7D
$PTH,42936*5A
$PENV,43163,1005.51,211.97,-1.00*30
$PENV,43413,1005.51,212.02,-1.00*3D
$PENV,43663,1005.51,212.12,-1.00*39
$PENV,43914,1005.52,211.91,-1.00*3D
$GNVTG,,T,,M,0.116,N,0.215,K,A*3D
$GNGGA,161651.00,3259.18640,N,09643.38332,W,1,12,0.76,204.5,M,-25.3,M,,*7B
$PTH,43944*5E
$PENV,44164,1005.53,211.51,-1.00*38
$PENV,44415,1005.51,211.98,-1.00*3C
$PENV,44665,1005.51,212.09,-1.00*32
$PENV,44915,1005.52,211.90,-1.00*3A
$GNVTG,,T,,M,0.078,N,0.145,K,A*32
$GNGGA,161652.00,3259.18638,N,09643.38339,W,1,12,0.76,204.4,M,-25.3,M,,*7D
$PTH,44944*59
$PENV,45166,1005.51,211.99,-1.00*3D
$PENV,45416,1005.51,212.17,-1.00*3A
$PENV,45667,1005.51,212.19,-1.00*30
$PENV,45917,1005.51,211.95,-1.00*3F
$GNVTG,,T,,M,0.208,N,0.385,K,A*39
$GNGGA,161653.00,3259.18639,N,09643.38345,W,1,12,0.76,204.3,M,-25.3,M,,*71
$PTH,45946*5A
$PENV,46168,1005.52,211.85,-1.00*3E
$PENV,46418,1005.52,211.68,-1.00*3F
$PENV,46669,1005.51,212.09,-1.00*3C
$PENV,46919,1005.50,212.27,-1.00*39
$GNVTG,,T,,M,0.169,N,0.312,K,A*33
$GNGGA,161654.00,3259.18640,N,09643.38350,W,1,12,0.76,204.2,M,-25.3,M,,*7D
$PTH,46940*5F
$PENV,47169,1005.51,212.21,-1.00*30
$PENV,47420,1005.51,211.95,-1.00*34
$PENV,47670,1005.51,212.05,-1.00*39
$PENV,47921,1005.52,211.80,-1.00*3F
$GNVTG,,T,,M,0.081,N,0.149,K,A*38
$GNGGA,161655.00,3259.18640,N,09643.38352,W,1,12,0.76,204.1,M,-25.3,M,,*7D
$PTH,47939*50
$PENV,48171,1005.52,211.71,-1.00*33
$PENV,48421,1005.51,212.00,-1.00*35
$PENV,48672,1005.51,212.09,-1.00*38
$PENV,48922,1005.51,212.03,-1.00*38
$GNVTG,,T,,M,0.122,N,0.227,K,A*3B
$GNGGA,161656.00,3259.18637,N,09643.38356,W,1,12,0.76,204.1,M,-25.3,M,,*7A
$PTH,48934*52
$PENV,49173,1005.51,212.01,-1.00*37
$PENV,49423,1005.50,212.42,-1.00*31
$PENV,49674,1005.51,211.95,-1.00*39
$PENV,49924,1005.51,212.17,-1.00*3A
$GNVTG,,T,,M,0.139,N,0.258,K,A*39
$GNGGA,161657.00,3259.18636,N,09643.38358,W,1,12,0.76,204.4,M,-25.3,M,,*71
$PTH,49941*51
$PENV,50174,1005.51,212.13,-1.00*3B
$PENV,50425,1005.51,212.01,-1.00*39
$PENV,50675,1005.52,211.85,-1.00*32
$PENV,50926,1005.52,211.87,-1.00*39
$GNVTG,,T,,M,0.101,N,0.187,K,A*33
$GNGGA,161658.00,3259.18635,N,09643.38362,W,1,12,0.76,204.2,M,-25.3,M,,*72
$PTH,50939*56
$PENV,51176,1005.50,212.24,-1.00*3D
$PENV,51427,1005.52,211.75,-1.00*39
$PENV,51677,1005.52,211.82,-1.00*36
$PENV,51927,1005.52,211.69,-1.00*39
$GNVTG,,T,,M,0.344,N,0.637,K,A*3C
$GNGGA,161659.00,3259.18640,N,09643.38361,W,1,12,0.76,204.2,M,-25.3,M,,*72
$PTH,51941*58
$PENV,52178,1005.51,211.95,-1.00*38
$PENV,52428,1005.51,212.01,-1.00*36
$PENV,52679,1005.51,212.09,-1.00*38
$PENV,52929,1005.52,211.75,-1.00*39
$GNVTG,,T,,M,0.177,N,0.328,K,A*35
$GNGGA,161700.00,3259.18640,N,09643.38358,W,1,12,0.76,204.3,M,-25.3,M,,*74
$PTH,52936*5B
$PENV,53180,1005.52,211.75,-1.00*33
$PENV,53430,1005.52,211.93,-1.00*35
$PENV,53680,1005.52,211.73,-1.00*32
$PENV,53931,1005.54,211.14,-1.00*30
$GNVTG,,T,,M,0.150,N,0.279,K,A*35
$GNGGA,161701.00,3259.18636,N,09643.38354,W,1,12,0.80,204.3,M,-25.3,M,,*71
$PTH,53939*55
$PENV,54181,1005.53,211.49,-1.00*3B
$PENV,54432,1005.53,211.49,-1.00*36
$PENV,54682,1005.52,211.72,-1.00*36
$GNVTG,,T,,M,0.165,N,0.305,K,A*39
$GNGGA,161702.00,3259.18634,N,09643.38349,W,1,12,0.80,204.2,M,-25.3,M,,*7D
$PTH,54932*59
$PENV,54933,1005.52,211.91,-1.00*3E
$PENV,55183,1005.53,211.50,-1.00*30
$PENV,55433,1005.52,211.86,-1.00*34
$PENV,55684,1005.53,211.52,-1.00*32
$PENV,55934,1005.54,211.24,-1.00*30
$GNVTG,,T,,M,0.087,N,0.162,K,A*37
$GNGGA,161703.00,3259.18633,N,09643.38349,W,1,12,0.75,204.0,M,-25.3,M,,*73
$PTH,55937*5D
$PENV,56185,1005.54,211.37,-1.00*33
$PENV,56435,1005.53,211.40,-1.00*3A
$PENV,56686,1005.53,211.57,-1.00*36
$GNVTG,,T,,M,0.233,N,0.432,K,A*3A
$GNGGA,161704.00,3259.18628,N,09643.38356,W,1,12,0.76,204.0,M,-25.3,M,,*73
$PTH,56927*5F
$PENV,56936,1005.53,211.59,-1.00*3C
$PENV,57186,1005.52,211.69,-1.00*3C
$PENV,57437,1005.54,211.17,-1.00*3C
$PENV,57687,1005.55,211.11,-1.00*32
$GNVTG,,T,,M,0.203,N,0.377,K,A*3F
$GNGGA,161705.00,3259.18624,N,09643.38359,W,1,12,0.74,204.0,M,-25.3,M,,*73
$PTH,57930*58
$PENV,57938,1005.52,211.71,-1.00*38
$PENV,58188,1005.53,211.46,-1.00*31
$PENV,58439,1005.53,211.52,-1.00*3B
$PENV,58689,1005.53,211.47,-1.00*36
$GNVTG,,T,,M,0.091,N,0.168,K,A*3A
$GNGGA,161706.00,3259.18624,N,09643.38359,W,1,12,0.76,203.8,M,-25.3,M,,*7D
$PTH,58924*52
$PENV,58940,1005.54,211.21,-1.00*3B
$PENV,59190,1005.52,211.76,-1.00*3B
$PENV,59440,1005.53,211.64,-1.00*31
$PENV,59691,1005.53,211.60,-1.00*3B
$GNVTG,,T,,M,0.247,N,0.457,K,A*3A
$GNGGA,161707.00,3259.18626,N,09643.38367,W,1,12,0.76,203.7,M,-25.3,M,,*7C
$PTH,59938*5E
$PENV,59941,1005.54,211.20,-1.00*3A
$PENV,60192,1005.54,211.23,-1.00*35
$PENV,60442,1005.53,211.40,-1.00*3F
$PENV,60693,1005.53,211.48,-1.00*39
$GNVTG,,T,,M,0.071,N,0.132,K,A*3B
$GNGGA,161708.00,3259.18628,N,09643.38377,W,1,12,0.76,203.7,M,-25.3,M,,*7C
$PTH,60940*5B
$PENV,60943,1005.53,211.47,-1.00*34
$PENV,61193,1005.55,211.08,-1.00*3D
$PENV,61444,1005.54,211.31,-1.00*39
$PENV,61694,1005.54,211.22,-1.00*34
$PENV,61945,1005.53,211.49,-1.00*3D
$GNVTG,,T,,M,0.073,N,0.135,K,A*3E
$GNGGA,161709.00,3259.18629,N,09643.38385,W,1,12,0.70,203.6,M,-25.3,M,,*76
$PTH,61947*5D
$PENV,62195,1005.54,211.11,-1.00*31
$PENV,62446,1005.53,211.42,-1.00*3B
$PENV,62696,1005.54,211.36,-1.00*30
$GNVTG,,T,,M,0.091,N,0.168,K,A*3A
$GNGGA,161710.00,3259.18634,N,09643.38388,W,1,12,0.69,203.6,M,-25.3,M,,*77
$PTH,62938*56
$PENV,62946,1005.54,211.34,-1.00*30
$PENV,63197,1005.56,210.68,-1.00*3F
$PENV,63447,1005.54,211.34,-1.00*3D
$PENV,63698,1005.56,210.78,-1.00*36
$GNVTG,,T,,M,0.324,N,0.600,K,A*3E
$GNGGA,161711.00,3259.18638,N,09643.38395,W,1,12,0.74,203.6,M,-25.3,M,,*7A
$PTH,63942*5A
$PENV,63948,1005.56,210.78,-1.00*34
$PENV,64199,1005.53,211.42,-1.00*3A
$PENV,64449,1005.57,210.53,-1.00*37
$PENV,64699,1005.55,210.98,-1.00*3D
$GNVTG,,T,,M,0.056,N,0.104,K,A*3B
$GNGGA,161712.00,3259.18642,N,09643.38401,W,1,12,0.74,203.7,M,-25.3,M,,*7F
$PTH,64935*5D
$PENV,64950,1005.56,210.83,-1.00*3E
$PENV,65200,1005.56,210.73,-1.00*3E
$PENV,65451,1005.55,210.92,-1.00*30
$PENV,65701,1005.55,211.01,-1.00*3D
$GNVTG,,T,,M,0.074,N,0.138,K,A*34
$GNGGA,161713.00,3259.18644,N,09643.38401,W,1,12,0.74,203.8,M,-25.3,M,,*77
$PTH,65940*5E
$PENV,65952,1005.56,210.59,-1.00*3A
$PENV,66202,1005.55,210.90,-1.00*31
$PENV,66453,1005.55,211.01,-1.00*3A
$PENV,66703,1005.54,211.19,-1.00*34
$GNVTG,,T,,M,0.057,N,0.106,K,A*38
$GNGGA,161714.00,3259.18648,N,09643.38401,W,1,12,0.69,204.0,M,-25.3,M,,*7F
$PTH,66941*5C
$PENV,66953,1005.54,211.16,-1.00*30
$PENV,67204,1005.55,211.10,-1.00*3F
$PENV,67454,1005.55,210.99,-1.00*3C
$PENV,67705,1005.55,210.94,-1.00*36
$GNVTG,,T,,M,0.038,N,0.070,K,A*31
$GNGGA,161715.00,3259.18654,N,09643.38404,W,1,12,0.69,204.2,M,-25.3,M,,*74
$PTH,67936*5D
$PENV,67955,1005.56,210.71,-1.00*35
$PENV,68206,1005.54,211.17,-1.00*34
$PENV,68456,1005.55,211.11,-1.00*30
$PENV,68706,1005.54,211.25,-1.00*30
$GNVTG,,T,,M,0.135,N,0.250,K,A*3D
$GNGGA,161716.00,3259.18657,N,09643.38408,W,1,12,0.69,204.4,M,-25.3,M,,*7E
$PTH,68955*57
$PENV,68957,1005.55,210.85,-1.00*30
$PENV,69207,1005.54,211.24,-1.00*34
$PENV,69458,1005.53,211.47,-1.00*3A
$PENV,69708,1005.56,210.75,-1.00*39
$GNVTG,,T,,M,0.129,N,0.239,K,A*3F
$GNGGA,161717.00,3259.18663,N,09643.38411,W,1,12,0.68,204.6,M,-25.3,M,,*73
$PTH,69938*5D
$PENV,69959,1005.55,211.10,-1.00*32
$PENV,70209,1005.55,211.04,-1.00*31
$PENV,70459,1005.53,211.44,-1.00*30
$PENV,70710,1005.54,211.22,-1.00*39
$GNVTG,,T,,M,0.137,N,0.254,K,A*3B
$GNGGA,161718.00,3259.18668,N,09643.38415,W,1,12,0.68,204.5,M,-25.3,M,,*70
$PTH,70937*5A
$PENV,70960,1005.53,211.46,-1.00*35
$PENV,71211,1005.52,211.75,-1.00*38
$PENV,71461,1005.52,211.78,-1.00*34
$PENV,71712,1005.52,211.78,-1.00*33
$GNVTG,,T,,M,0.079,N,0.146,K,A*30
$GNGGA,161719.00,3259.18675,N,09643.38419,W,1,12,0.71,204.5,M,-25.3,M,,*79
$PTH,71937*5B
$PENV,71962,1005.51,212.01,-1.00*34
$PENV,72212,1005.52,211.89,-1.00*3B
$PENV,72463,1005.52,211.85,-1.00*37
$PENV,72713,1005.52,211.83,-1.00*35
$GNVTG,,T,,M,0.042,N,0.077,K,A*3B
$GNGGA,161720.00,3259.18679,N,09643.38422,W,1,12,0.71,204.5,M,-25.3,M,,*77
$PTH,72939*56
$PENV,72964,1005.52,211.94,-1.00*3D
$PENV,73214,1005.51,211.95,-1.00*32
$PENV,73465,1005.52,211.80,-1.00*35
$PENV,73715,1005.52,211.93,-1.00*33
$GNVTG,,T,,M,0.045,N,0.084,K,A*30
$GNGGA,161721.00,3259.18684,N,09643.38425,W,1,12,0.71,204.8,M,-25.3,M,,*7E
$PTH,73934*5A
$PENV,73965,1005.52,211.94,-1.00*3D
$PENV,74216,1005.52,211.94,-1.00*35
$PENV,74466,1005.52,211.83,-1.00*32
$PENV,74717,1005.52,211.83,-1.00*37
$GNVTG,,T,,M,0.164,N,0.303,K,A*3E
$GNGGA,161722.00,3259.18688,N,09643.38423,W,1,12,0.71,204.9,M,-25.3,M,,*76
$PTH,74937*5E
$PENV,74967,1005.51,212.16,-1.00*32
$PENV,75218,1005.51,212.07,-1.00*30
$PENV,75468,1005.50,212.21,-1.00*34
$PENV,75718,1005.53,211.60,-1.00*35
$GNVTG,,T,,M,0.050,N,0.092,K,A*33
$GNGGA,161723.00,3259.18694,N,09643.38419,W,1,12,0.71,205.2,M,-25.3,M,,*79
$PTH,75939*51
$PENV,75969,1005.53,211.63,-1.00*3E
$PENV,76219,1005.53,211.45,-1.00*35
$PENV,76470,1005.52,211.74,-1.00*3F
$PENV,76720,1005.53,211.56,-1.00*38
$GNVTG,,T,,M,0.075,N,0.139,K,A*34
$GNGGA,161724.00,3259.18699,N,09643.38413,W,1,12,0.75,205.4,M,-25.3,M,,*7B
$PTH,76939*52
$PENV,76971,1005.53,211.60,-1.00*37
$PENV,77221,1005.54,211.30,-1.00*3A
$PENV,77471,1005.53,211.45,-1.00*3C
$PENV,77722,1005.53,211.64,-1.00*3A
$GNVTG,,T,,M,0.127,N,0.234,K,A*3C
$GNGGA,161725.00,3259.18701,N,09643.38412,W,1,12,0.75,205.6,M,-25.3,M,,*79
$PTH,77940*5D
$PENV,77972,1005.54,211.22,-1.00*34
$PENV,78223,1005.53,211.62,-1.00*37
$PENV,78473,1005.53,211.48,-1.00*3C
$PENV,78724,1005.53,211.48,-1.00*3D
$GNVTG,,T,,M,0.098,N,0.182,K,A*37
$GNGGA,161726.00,3259.18703,N,09643.38413,W,1,12,0.72,205.9,M,-25.3,M,,*71
$PTH,78932*57
$PENV,78974,1005.54,211.17,-1.00*3B
$PENV,79224,1005.51,212.02,-1.00*36
$PENV,79475,1005.53,211.49,-1.00*3A
$PENV,79725,1005.52,211.75,-1.00*32
$GNVTG,,T,,M,0.139,N,0.258,K,A*39
$GNGGA,161727.00,3259.18705,N,09643.38411,W,1,12,0.68,205.9,M,-25.3,M,,*7F
$PTH,79936*52
$PENV,79976,1005.52,211.92,-1.00*33
$PENV,80226,1005.51,211.98,-1.00*32
$PENV,80477,1005.51,212.03,-1.00*31
$PENV,80727,1005.52,211.68,-1.00*3A
$GNVTG,,T,,M,0.050,N,0.092,K,A*33
$GNGGA,161728.00,3259.18704,N,09643.38407,W,1,12,0.78,205.9,M,-25.3,M,,*77
$PTH,80941*54
$PENV,80977,1005.51,212.17,-1.00*39
$PENV,81228,1005.50,212.39,-1.00*34
$PENV,81478,1005.51,212.07,-1.00*3B
$PENV,81729,1005.50,212.44,-1.00*3A
$GNVTG,,T,,M,0.207,N,0.384,K,A*37
$GNGGA,161729.00,3259.18705,N,09643.38407,W,1,12,0.73,206.0,M,-25.3,M,,*76
$PTH,81935*56
$PENV,81979,1005.50,212.40,-1.00*35
$PENV,82230,1005.50,212.29,-1.00*3F
$PENV,82480,1005.52,211.79,-1.00*36
$PENV,82730,1005.51,212.01,-1.00*31
$GNVTG,,T,,M,0.109,N,0.202,K,A*35
$GNGGA,161730.00,3259.18707,N,09643.38410,W,1,12,0.73,206.3,M,-25.3,M,,*79
$PTH,82942*55
$PENV,82981,1005.51,212.21,-1.00*37
$PENV,83231,1005.50,212.40,-1.00*30
$PENV,83482,1005.49,212.58,-1.00*3F
$PENV,83732,1005.49,212.50,-1.00*3F
$GNVTG,,T,,M,0.021,N,0.039,K,A*34
$GNGGA,161731.00,3259.18711,N,09643.38409,W,1,12,0.75,206.4,M,-25.3,M,,*76
$PTH,83947*51
$PENV,83983,1005.50,212.26,-1.00*32
$PENV,84233,1005.51,212.07,-1.00*37
$PENV,84483,1005.50,212.31,-1.00*3E
$PENV,84734,1005.50,212.34,-1.00*34
$GNVTG,,T,,M,0.078,N,0.144,K,A*33
$GNGGA,161732.00,3259.18718,N,09643.38408,W,1,12,0.73,206.6,M,-25.3,M,,*79
$PTH,84940*51
$PENV,84984,1005.51,212.21,-1.00*34
$PENV,85235,1005.49,212.70,-1.00*39
$PENV,85485,1005.50,212.31,-1.00*39
$PENV,85736,1005.49,212.49,-1.00*35
$GNVTG,,T,,M,0.068,N,0.126,K,A*36
$GNGGA,161733.00,3259.18724,N,09643.38410,W,1,12,0.73,207.0,M,-25.3,M,,*79
$PTH,85951*50
$PENV,85986,1005.49,212.61,-1.00*3A
$PENV,86236,1005.50,212.22,-1.00*36
$PENV,86487,1005.51,212.21,-1.00*38
$PENV,86737,1005.51,212.06,-1.00*35
$GNVTG,,T,,M,0.093,N,0.173,K,A*32
$GNGGA,161734.00,3259.18730,N,09643.38411,W,1,12,0.73,206.9,M,-25.3,M,,*72
$PTH,86934*50
$PENV,86988,1005.50,212.30,-1.00*3B
$PENV,87238,1005.52,211.75,-1.00*3A
$PENV,87489,1005.52,211.88,-1.00*34
$PENV,87739,1005.52,211.86,-1.00*32
$GNVTG,,T,,M,0.078,N,0.144,K,A*33
$GNGGA,161735.00,3259.18736,N,09643.38411,W,1,12,0.70,207.2,M,-25.3,M,,*7C
$PTH,87938*5D
$PENV,87990,1005.51,211.95,-1.00*3E
$PENV,88240,1005.51,212.05,-1.00*3D
$PENV,88490,1005.52,211.74,-1.00*30
$PENV,88741,1005.52,211.82,-1.00*36
$GNVTG,,T,,M,0.160,N,0.297,K,A*36
$GNGGA,161736.00,3259.18738,N,09643.38411,W,1,12,0.68,207.4,M,-25.3,M,,*7E
$PTH,88932*58
$PENV,88991,1005.51,212.21,-1.00*3C
$PENV,89242,1005.50,212.32,-1.00*3B
$PENV,89492,1005.51,212.09,-1.00*39
$PENV,89743,1005.53,211.40,-1.00*3A
$GNVTG,,T,,M,0.174,N,0.322,K,A*3C
$GNGGA,161737.00,3259.18739,N,09643.38412,W,1,12,0.74,207.3,M,-25.3,M,,*77
$PTH,89936*5D
$PENV,89993,1005.51,212.00,-1.00*3C
$PENV,90243,1005.53,211.63,-1.00*36
$PENV,90494,1005.52,211.78,-1.00*31
$PENV,90744,1005.53,211.52,-1.00*36
$GNVTG,,T,,M,0.095,N,0.175,K,A*32
$GNGGA,161738.00,3259.18738,N,09643.38410,W,1,12,0.74,207.3,M,-25.3,M,,*7B
$PTH,90938*5B
$PENV,90995,1005.54,211.38,-1.00*3F
$PENV,91245,1005.53,211.39,-1.00*3E
$PENV,91496,1005.53,211.57,-1.00*3E
$PENV,91746,1005.55,211.00,-1.00*34
$GNVTG,,T,,M,0.202,N,0.374,K,A*3D
$GNGGA,161739.00,3259.18736,N,09643.38408,W,1,12,0.74,207.3,M,-25.3,M,,*7D
$PTH,91940*55
$PENV,91996,1005.54,211.16,-1.00*31
$PENV,92247,1005.53,211.58,-1.00*38
$PENV,92497,1005.53,211.44,-1.00*3E
$PENV,92748,1005.54,211.19,-1.00*30
$GNVTG,,T,,M,0.107,N,0.198,K,A*3B
$GNGGA,161740.00,3259.18735,N,09643.38408,W,1,12,0.68,207.3,M,-25.3,M,,*7D
$PTH,92931*50
$PENV,92998,1005.55,211.09,-1.00*33
$PENV,93249,1005.56,210.80,-1.00*36
$PENV,93499,1005.54,211.21,-1.00*35
$PENV,93749,1005.56,210.61,-1.00*3C
$GNVTG,,T,,M,0.059,N,0.109,K,A*39
$GNGGA,161741.00,3259.18735,N,09643.38405,W,1,12,0.68,207.3,M,-25.3,M,,*71
$PTH,93943*54
$PENV,94000,1005.55,210.84,-1.00*39
$PENV,94250,1005.55,211.05,-1.00*36
$PENV,94501,1005.55,211.10,-1.00*31
$PENV,94751,1005.54,211.30,-1.00*35
$GNVTG,,T,,M,0.117,N,0.217,K,A*3E
$GNGGA,161742.00,3259.18734,N,09643.38405,W,1,12,0.74,207.2,M,-25.3,M,,*7F
$PTH,94936*51
$PENV,95002,1005.55,211.10,-1.00*36
$PENV,95252,1005.55,211.03,-1.00*33
$PENV,95502,1005.55,210.88,-1.00*33
$PENV,95753,1005.56,210.83,-1.00*3D
$GNVTG,,T,,M,0.100,N,0.184,K,A*31
$GNGGA,161743.00,3259.18732,N,09643.38401,W,1,12,0.74,207.0,M,-25.3,M,,*7E
$PTH,95940*51
$PENV,96003,1005.55,210.97,-1.00*3A
$PENV,96254,1005.53,211.43,-1.00*34
$PENV,96504,1005.56,210.82,-1.00*3F
$PENV,96755,1005.55,211.10,-1.00*30
$GNVTG,,T,,M,0.149,N,0.276,K,A*32
$GNGGA,161744.00,3259.18731,N,09643.38397,W,1,12,0.75,206.8,M,-25.3,M,,*7A
$PTH,96934*51
$PENV,97005,1005.56,210.82,-1.00*3A
$PENV,97255,1005.55,210.85,-1.00*39
$PENV,97506,1005.55,211.02,-1.00*36
$PENV,97756,1005.55,210.86,-1.00*3C
$GNVTG,,T,,M,0.146,N,0.271,K,A*3A
$GNGGA,161745.00,3259.18730,N,09643.38393,W,1,12,0.74,206.9,M,-25.3,M,,*7E
$PTH,97938*5C
$PENV,98007,1005.55,210.89,-1.00*3F
$PENV,98257,1005.55,211.04,-1.00*3C
$PENV,98508,1005.53,211.45,-1.00*32
$PENV,98758,1005.55,210.91,-1.00*3B
$GNVTG,,T,,M,0.148,N,0.273,K,A*36
$GNGGA,161746.00,3259.18727,N,09643.38394,W,1,12,0.74,206.9,M,-25.3,M,,*7C
$PTH,98939*52
$PENV,99008,1005.54,211.21,-1.00*33
$PENV,99259,1005.54,211.36,-1.00*33
$PENV,99509,1005.54,211.32,-1.00*35
$PENV,99760,1005.54,211.30,-1.00*3A
$GNVTG,,T,,M,0.111,N,0.206,K,A*38
$GNGGA,161747.00,3259.18726,N,09643.38389,W,1,12,0.70,206.7,M,-25.3,M,,*7A
$PTH,99934*5E
$PENV,100010,1005.53,211.51,-1.00*0B
$PENV,100261,1005.53,211.51,-1.00*0F
$PENV,100511,1005.53,211.66,-1.00*0B
$PENV,100762,1005.53,211.64,-1.00*0F
$GNVTG,,T,,M,0.172,N,0.318,K,A*33
$GNGGA,161748.00,3259.18727,N,09643.38385,W,1,12,0.72,206.7,M,-25.3,M,,*7A
$PTH,100937*6C
$PENV,101012,1005.53,211.57,-1.00*0E
$PENV,101262,1005.52,211.78,-1.00*07
$PENV,101513,1005.52,211.73,-1.00*0D
$PENV,101763,1005.54,211.28,-1.00*00
$GNVTG,,T,,M,0.165,N,0.305,K,A*39
$GNGGA,161749.00,3259.18727,N,09643.38381,W,1,12,0.71,206.7,M,-25.3,M,,*7C
$PTH,101938*62
$PENV,102014,1005.52,211.89,-1.00*09
$PENV,102264,1005.52,211.68,-1.00*03
$PENV,102515,1005.53,211.57,-1.00*0F
$PENV,102765,1005.52,211.75,-1.00*0B
$GNVTG,,T,,M,0.090,N,0.166,K,A*35
$GNGGA,161750.00,3259.18729,N,09643.38376,W,1,12,0.71,206.7,M,-25.3,M,,*72
$PTH,102932*6B
$PENV,103015,1005.52,211.88,-1.00*08
$PENV,103266,1005.53,211.44,-1.00*0F
$PENV,103516,1005.53,211.54,-1.00*0E
$PENV,103767,1005.51,211.97,-1.00*07
$GNVTG,,T,,M,0.125,N,0.232,K,A*38
$GNGGA,161751.00,3259.18731,N,09643.38368,W,1,12,0.71,206.7,M,-25.3,M,,*75
$PTH,103936*6E
$PENV,104017,1005.52,211.69,-1.00*02
$PENV,104268,1005.52,211.83,-1.00*0C
$PENV,104518,1005.52,211.72,-1.00*02
$PENV,104768,1005.52,211.84,-1.00*0E
$GNVTG,,T,,M,0.119,N,0.221,K,A*35
$GNGGA,161752.00,3259.18734,N,09643.38359,W,1,12,0.72,206.5,M,-25.3,M,,*70
$PTH,104930*6F
$PENV,105019,1005.51,212.02,-1.00*00
$PENV,105269,1005.55,211.11,-1.00*00
$PENV,105520,1005.54,211.18,-1.00*02
$PENV,105770,1005.54,211.36,-1.00*09
$GNVTG,,T,,M,0.033,N,0.060,K,A*3B
$GNGGA,161753.00,3259.18736,N,09643.38352,W,1,12,0.77,206.5,M,-25.3,M,,*7D
$PTH,105930*6E
$PENV,106021,1005.54,211.37,-1.00*08
$PENV,106271,1005.54,211.30,-1.00*08
$PENV,106521,1005.54,211.20,-1.00*0B
$PENV,106772,1005.55,211.02,-1.00*0E
$GNVTG,,T,,M,0.186,N,0.345,K,A*30
$GNGGA,161754.00,3259.18736,N,09643.38345,W,1,12,0.77,206.5,M,-25.3,M,,*7C
$PTH,106922*6E
$PENV,107022,1005.54,211.21,-1.00*0D
$PENV,107273,1005.55,211.11,-1.00*09
$PENV,107523,1005.53,211.65,-1.00*0E
$PENV,107774,1005.54,211.32,-1.00*0B
$GNVTG,,T,,M,0.106,N,0.196,K,A*34
$GNGGA,161755.00,3259.18738,N,09643.38339,W,1,12,0.77,206.6,M,-25.3,M,,*7B
$PTH,107931*6D
$PENV,108024,1005.54,211.35,-1.00*01
$PENV,108274,1005.54,211.21,-1.00*03
$PENV,108525,1005.54,211.36,-1.00*06
$PENV,108775,1005.53,211.55,-1.00*03
$GNVTG,,T,,M,0.065,N,0.120,K,A*3D
$GNGGA,161756.00,3259.18738,N,09643.38337,W,1,12,0.75,206.7,M,-25.3,M,,*75
$PTH,108934*67
$PENV,109026,1005.53,211.52,-1.00*04
$PENV,109276,1005.53,211.53,-1.00*02
$PENV,109527,1005.52,211.79,-1.00*08
$PENV,109777,1005.51,212.01,-1.00*00
$GNVTG,,T,,M,0.127,N,0.236,K,A*3E
$GNGGA,161757.00,3259.18739,N,09643.38335,W,1,12,0.75,206.7,M,-25.3,M,,*77
$PTH,109937*65
$PENV,110027,1005.52,211.73,-1.00*0F
$PENV,110278,1005.52,211.89,-1.00*02
$PENV,110528,1005.52,211.88,-1.00*01
$PENV,110779,1005.52,211.81,-1.00*0E
$GNVTG,,T,,M,0.080,N,0.149,K,A*39
$GNGGA,161758.00,3259.18738,N,09643.38334,W,1,12,0.75,206.6,M,-25.3,M,,*79
$PTH,110947*6A
$PENV,111029,1005.51,211.97,-1.00*09
$PENV,111280,1005.51,211.99,-1.00*06
$PENV,111530,1005.53,211.66,-1.00*08
$PENV,111780,1005.51,211.96,-1.00*0C
$GNVTG,,T,,M,0.200,N,0.370,K,A*3B
$GNGGA,161759.00,3259.18735,N,09643.38337,W,1,12,0.73,206.6,M,-25.3,M,,*70
$PTH,111934*6F
$PENV,112031,1005.53,211.56,-1.00*0C
$PENV,112281,1005.51,211.95,-1.00*08
$PENV,112532,1005.52,211.92,-1.00*03
$PENV,112782,1005.52,211.90,-1.00*08
$GNVTG,,T,,M,0.085,N,0.158,K,A*3C
$GNGGA,161800.00,3259.18733,N,09643.38337,W,1,12,0.73,206.7,M,-25.3,M,,*74
$PTH,112935*6D
$PENV,113033,1005.51,211.97,-1.00*00
$PENV,113283,1005.51,212.08,-1.00*0C
$PENV,113533,1005.52,211.69,-1.00*07
$PENV,113784,1005.53,211.47,-1.00*04
$GNVTG,,T,,M,0.185,N,0.344,K,A*32
$GNGGA,161801.00,3259.18730,N,09643.38335,W,1,12,0.73,206.5,M,-25.3,M,,*76
$PTH,113937*6E
$PENV,114034,1005.52,211.71,-1.00*0B
$PENV,114285,1005.52,211.91,-1.00*0D
$PENV,114535,1005.52,211.75,-1.00*0B
$PENV,114786,1005.53,211.46,-1.00*00
$GNVTG,,T,,M,0.083,N,0.155,K,A*37
$GNGGA,161802.00,3259.18729,N,09643.38337,W,1,12,0.73,206.6,M,-25.3,M,,*7C
$PTH,114930*6E
$PENV,115036,1005.52,211.89,-1.00*0F
$PENV,115286,1005.52,211.80,-1.00*0F
$PENV,115537,1005.52,211.80,-1.00*02
$PENV,115787,1005.51,211.98,-1.00*01
$GNVTG,,T,,M,0.179,N,0.331,K,A*33
$GNGGA,161803.00,3259.18733,N,09643.38333,W,1,12,0.73,206.3,M,-25.3,M,,*77
$PTH,115932*6D
$PENV,116038,1005.52,211.69,-1.00*0C
$PENV,116288,1005.52,211.73,-1.00*0E
$PENV,116539,1005.52,211.82,-1.00*0D
$PENV,116789,1005.52,211.71,-1.00*08
$GNVTG,,T,,M,0.103,N,0.191,K,A*36
$GNGGA,161804.00,3259.18735,N,09643.38331,W,1,12,0.73,206.3,M,-25.3,M,,*74
$PTH,116934*68
$PENV,117040,1005.51,212.10,-1.00*0C
$PENV,117290,1005.51,212.14,-1.00*07
$PENV,117540,1005.52,211.78,-1.00*07
$PENV,117791,1005.52,211.78,-1.00*09
$GNVTG,,T,,M,0.061,N,0.113,K,A*39
$GNGGA,161805.00,3259.18734,N,09643.38328,W,1,12,0.73,206.2,M,-25.3,M,,*7D
$PTH,117949*63
$PENV,118041,1005.52,211.91,-1.00*0B
$PENV,118292,1005.53,211.63,-1.00*0B
$PENV,118542,1005.53,211.59,-1.00*08
$PENV,118793,1005.53,211.53,-1.00*0C
$GNVTG,,T,,M,0.286,N,0.529,K,A*3F
$GNGGA,161806.00,3259.18735,N,09643.38326,W,1,12,0.73,206.2,M,-25.3,M,,*71
$PTH,118938*6A
$PENV,119043,1005.52,211.69,-1.00*0F
$PENV,119293,1005.53,211.52,-1.00*09
$PENV,119544,1005.51,212.01,-1.00*03
$PENV,119794,1005.52,211.69,-1.00*02
$GNVTG,,T,,M,0.085,N,0.158,K,A*3C
$GNGGA,161807.00,3259.18740,N,09643.38322,W,1,12,0.73,206.1,M,-25.3,M,,*75
$PTH,119938*6B
$PENV,120045,1005.53,211.51,-1.00*09
$PENV,120295,1005.52,211.89,-1.00*02
$PENV,120546,1005.53,211.55,-1.00*0B
$PENV,120796,1005.54,211.11,-1.00*03
$GNVTG,,T,,M,0.038,N,0.070,K,A*31
$GNGGA,161808.00,3259.18740,N,09643.38319,W,1,12,0.73,205.8,M,-25.3,M,,*78
$PTH,120931*68
$PENV,121046,1005.53,211.56,-1.00*0C
$PENV,121297,1005.54,211.19,-1.00*0E
$PENV,121547,1005.53,211.48,-1.00*07
$PENV,121798,1005.53,211.66,-1.00*0B
$GNVTG,,T,,M,0.114,N,0.212,K,A*38
$GNGGA,161809.00,3259.18741,N,09643.38318,W,1,12,0.73,205.9,M,-25.3,M,,*78
$PTH,121941*6E
$PENV,122048,1005.53,211.64,-1.00*00
$PENV,122299,1005.53,211.65,-1.00*0F
$PENV,122549,1005.53,211.63,-1.00*03
$PENV,122799,1005.53,211.56,-1.00*0A
$GNVTG,,T,,M,0.053,N,0.098,K,A*3A
$GNGGA,161810.00,3259.18741,N,09643.38313,W,1,12,0.73,205.8,M,-25.3,M,,*7A
$PTH,122933*68
$PENV,123050,1005.53,211.43,-1.00*0D
$PENV,123300,1005.53,211.63,-1.00*09
$PENV,123551,1005.53,211.66,-1.00*0E
$PENV,123801,1005.53,211.56,-1.00*05
$GNVTG,,T,,M,0.067,N,0.124,K,A*3B
$GNGGA,161811.00,3259.18740,N,09643.38311,W,1,12,0.73,205.8,M,-25.3,M,,*78
$PTH,123939*63
$PENV,124052,1005.54,211.17,-1.00*0E
$PENV,124302,1005.53,211.47,-1.00*0A
$PENV,124552,1005.54,211.24,-1.00*0B
$PENV,124803,1005.55,211.10,-1.00*04
$GNVTG,,T,,M,0.118,N,0.219,K,A*3F
$GNGGA,161812.00,3259.18740,N,09643.38307,W,1,12,0.73,205.8,M,-25.3,M,,*7C
$PTH,124934*69
$PENV,125053,1005.54,211.21,-1.00*0B
$PENV,125304,1005.54,211.36,-1.00*0C
$PENV,125554,1005.54,211.27,-1.00*0F
$PENV,125805,1005.55,211.10,-1.00*03
$GNVTG,,T,,M,0.147,N,0.271,K,A*3B
$GNGGA,161813.00,3259.18739,N,09643.38302,W,1,12,0.73,205.6,M,-25.3,M,,*78
$PTH,125938*64
$PENV,126055,1005.55,211.04,-1.00*08
$PENV,126305,1005.54,211.13,-1.00*09
$PENV,126556,1005.54,211.23,-1.00*0A
$PENV,126806,1005.55,210.89,-1.00*02
$GNVTG,,T,,M,0.174,N,0.323,K,A*3D
$GNGGA,161814.00,3259.18735,N,09643.38301,W,1,12,0.73,205.5,M,-25.3,M,,*73
$PTH,126932*6D
$PENV,127057,1005.55,210.97,-1.00*00
$PENV,127307,1005.57,210.45,-1.00*0B
$PENV,127558,1005.54,211.26,-1.00*00
$PENV,127808,1005.56,210.81,-1.00*06
$GNVTG,,T,,M,0.087,N,0.161,K,A*34
$GNGGA,161815.00,3259.18733,N,09643.38298,W,1,12,0.73,205.5,M,-25.3,M,,*75
$PTH,127932*6C
$PENV,128059,1005.57,210.54,-1.00*0C
$PENV,128309,1005.56,210.59,-1.00*06
$PENV,128559,1005.55,211.10,-1.00*0A
$PENV,128810,1005.56,210.69,-1.00*06
$GNVTG,,T,,M,0.143,N,0.264,K,A*3B
$GNGGA,161816.00,3259.18733,N,09643.38294,W,1,12,0.78,205.6,M,-25.3,M,,*72
$PTH,128926*66
$PENV,129060,1005.55,210.98,-1.00*05
$PENV,129311,1005.57,210.32,-1.00*02
$PENV,129561,1005.55,210.98,-1.00*01
$PENV,129812,1005.57,210.57,-1.00*09
$GNVTG,,T,,M,0.174,N,0.322,K,A*3C
$GNGGA,161817.00,3259.18736,N,09643.38288,W,1,12,0.78,205.4,M,-25.3,M,,*79
$PTH,129926*67
$PENV,130062,1005.56,210.64,-1.00*0F
$PENV,130312,1005.55,210.87,-1.00*05
$PENV,130563,1005.56,210.71,-1.00*0F
$PENV,130813,1005.55,210.97,-1.00*0E
$GNVTG,,T,,M,0.154,N,0.285,K,A*32
$GNGGA,161818.00,3259.18736,N,09643.38286,W,1,12,0.78,205.4,M,-25.3,M,,*78
$PTH,130918*62
$PENV,131064,1005.56,210.68,-1.00*04
$PENV,131314,1005.57,210.36,-1.00*0A
$PENV,131565,1005.57,210.56,-1.00*0C
$PENV,131815,1005.56,210.63,-1.00*01
$GNVTG,,T,,M,0.029,N,0.054,K,A*37
$GNGGA,161819.00,3259.18735,N,09643.38286,W,1,12,0.73,205.4,M,-25.3,M,,*71
$PTH,131923*6B
$PENV,132066,1005.56,210.67,-1.00*0A
$PENV,132316,1005.56,210.78,-1.00*00
$PENV,132566,1005.58,210.07,-1.00*07
$PENV,132817,1005.58,210.10,-1.00*0A
$GNVTG,,T,,M,0.097,N,0.179,K,A*3C
$GNGGA,161820.00,3259.18736,N,09643.38282,W,1,12,0.74,205.4,M,-25.3,M,,*7B
$PTH,132921*6A
$PENV,133067,1005.58,210.14,-1.00*00
$PENV,133318,1005.58,210.12,-1.00*0D
$PENV,133568,1005.57,210.41,-1.00*05
$PENV,133819,1005.58,210.16,-1.00*03
$GNVTG,,T,,M,0.203,N,0.375,K,A*3D
$GNGGA,161821.00,3259.18735,N,09643.38282,W,1,12,0.68,205.5,M,-25.3,M,,*75
$PTH,133933*68
$PENV,134069,1005.59,209.93,-1.00*0F
$PENV,134319,1005.58,210.06,-1.00*0E
$PENV,134570,1005.57,210.35,-1.00*08
$PENV,134820,1005.59,209.80,-1.00*08
$GNVTG,,T,,M,0.039,N,0.073,K,A*33
$GNGGA,161822.00,3259.18732,N,09643.38282,W,1,12,0.73,205.4,M,-25.3,M,,*7A
$PTH,134935*69
$PENV,135071,1005.58,210.13,-1.00*06
$PENV,135321,1005.57,210.32,-1.00*0C
$PENV,135572,1005.59,209.78,-1.00*04
$PENV,135822,1005.60,209.73,-1.00*0D
$GNVTG,,T,,M,0.096,N,0.177,K,A*33
$GNGGA,161823.00,3259.18732,N,09643.38281,W,1,12,0.73,205.3,M,-25.3,M,,*7F
$PTH,135929*65
$PENV,136073,1005.58,210.21,-1.00*06
$PENV,136323,1005.59,209.85,-1.00*07
$PENV,136573,1005.59,209.96,-1.00*06
$PENV,136824,1005.58,210.16,-1.00*08
$GNVTG,,T,,M,0.102,N,0.190,K,A*36
$GNGGA,161824.00,3259.18734,N,09643.38284,W,1,12,0.68,205.2,M,-25.3,M,,*70
$PTH,136936*68
$PENV,137074,1005.57,210.37,-1.00*08
$PENV,137325,1005.58,210.18,-1.00*0D
$PENV,137575,1005.59,209.90,-1.00*07
$PENV,137826,1005.58,210.12,-1.00*0F
$GNVTG,,T,,M,0.106,N,0.197,K,A*35
$GNGGA,161825.00,3259.18732,N,09643.38287,W,1,12,0.68,205.2,M,-25.3,M,,*74
$PTH,137938*67
$PENV,138076,1005.58,210.02,-1.00*0C
$PENV,138327,1005.58,210.08,-1.00*01
$PENV,138577,1005.59,209.99,-1.00*03
$PENV,138827,1005.59,209.80,-1.00*03
$GNVTG,,T,,M,0.255,N,0.472,K,A*3E
$GNGGA,161826.00,3259.18726,N,09643.38292,W,1,12,0.68,205.4,M,-25.3,M,,*70
$PTH,138941*66
$PENV,139078,1005.61,209.22,-1.00*03
$PENV,139328,1005.60,209.68,-1.00*0A
$PENV,139579,1005.58,210.29,-1.00*0E
$PENV,139829,1005.60,209.73,-1.00*0A
$GNVTG,,T,,M,0.125,N,0.232,K,A*38
$GNGGA,161827.00,3259.18723,N,09643.38292,W,1,12,0.68,205.3,M,-25.3,M,,*73
$PTH,139931*60
$PENV,140080,1005.57,210.45,-1.00*06
$PENV,140330,1005.59,209.94,-1.00*04
$PENV,140580,1005.60,209.73,-1.00*0A
$PENV,140831,1005.59,209.83,-1.00*08
$GNVTG,,T,,M,0.125,N,0.232,K,A*38
$GNGGA,161828.00,3259.18723,N,09643.38290,W,1,12,0.68,205.1,M,-25.3,M,,*7C
$PTH,140936*69
$PENV,141081,1005.58,210.02,-1.00*0A
$PENV,141332,1005.60,209.71,-1.00*06
$PENV,141582,1005.61,209.34,-1.00*0B
$PENV,141833,1005.59,210.01,-1.00*09
$GNVTG,,T,,M,0.150,N,0.278,K,A*34
$GNGGA,161829.00,3259.18722,N,09643.38292,W,1,12,0.68,205.1,M,-25.3,M,,*7E
$PTH,141949*60
$PENV,142083,1005.57,210.31,-1.00*04
$PENV,142333,1005.59,209.92,-1.00*03
$PENV,142584,1005.60,209.69,-1.00*07
$PENV,142834,1005.60,209.60,-1.00*08
$GNVTG,,T,,M,0.021,N,0.040,K,A*3A
$GNGGA,161830.00,3259.18722,N,09643.38295,W,1,12,0.68,205.0,M,-25.3,M,,*70
$PTH,142940*6A
$PENV,143085,1005.61,209.24,-1.00*0A
$PENV,143335,1005.60,209.63,-1.00*00
$PENV,143586,1005.60,209.57,-1.00*09
$PENV,143836,1005.61,209.45,-1.00*0D
$GNVTG,,T,,M,0.152,N,0.281,K,A*30
$GNGGA,161831.00,3259.18723,N,09643.38295,W,1,12,0.68,204.9,M,-25.3,M,,*78
$PTH,143949*62
$PENV,144086,1005.59,209.80,-1.00*0B
$PENV,144337,1005.61,209.45,-1.00*00
$PENV,144587,1005.60,209.70,-1.00*0A
$PENV,144838,1005.60,209.48,-1.00*08
$GNVTG,,T,,M,0.046,N,0.086,K,A*31
$GNGGA,161832.00,3259.18724,N,09643.38295,W,1,12,0.68,204.9,M,-25.3,M,,*7C
$PTH,144953*6E
$PENV,145088,1005.61,209.46,-1.00*05
$PENV,145339,1005.60,209.54,-1.00*0E
$PENV,145589,1005.60,209.56,-1.00*01
$PENV,145839,1005.61,209.28,-1.00*0F
$GNVTG,,T,,M,0.111,N,0.206,K,A*38
$GNGGA,161833.00,3259.18724,N,09643.38295,W,1,12,0.68,204.8,M,-25.3,M,,*7C
$PTH,145941*6C
$PENV,146090,1005.61,209.32,-1.00*0C
$PENV,146340,1005.61,209.46,-1.00*01
$PENV,146591,1005.60,209.60,-1.00*0E
$PENV,146841,1005.60,209.57,-1.00*0A
$GNVTG,,T,,M,0.122,N,0.225,K,A*39
$GNGGA,161834.00,3259.18725,N,09643.38297,W,1,12,0.68,205.0,M,-25.3,M,,*71
$PTH,146934*6D
$PENV,147092,1005.61,209.41,-1.00*0B
$PENV,147342,1005.64,208.59,-1.00*08
$PENV,147592,1005.64,208.59,-1.00*03
$PENV,147843,1005.64,208.61,-1.00*09
$GNVTG,,T,,M,0.073,N,0.135,K,A*3E
$GNGGA,161835.00,3259.18724,N,09643.38298,W,1,12,0.68,205.0,M,-25.3,M,,*7E
$PTH,147931*69
$PENV,148093,1005.63,208.77,-1.00*03
$PENV,148344,1005.64,208.60,-1.00*0B
$PENV,148594,1005.63,208.68,-1.00*0F
$PENV,148845,1005.63,208.76,-1.00*01
$GNVTG,,T,,M,0.059,N,0.109,K,A*39
$GNGGA,161836.00,3259.18723,N,09643.38300,W,1,12,0.68,204.9,M,-25.3,M,,*72
$PTH,148932*65
$PENV,149095,1005.63,208.71,-1.00*02
$PENV,149345,1005.63,208.75,-1.00*08
$PENV,149596,1005.65,208.36,-1.00*01
$PENV,149846,1005.63,208.69,-1.00*0D
$GNVTG,,T,,M,0.093,N,0.171,K,A*30
$GNGGA,161837.00,3259.18723,N,09643.38299,W,1,12,0.68,204.8,M,-25.3,M,,*73
$PTH,149934*62
$PENV,150097,1005.64,208.60,-1.00*0F
$PENV,150347,1005.62,209.02,-1.00*02
$PENV,150598,1005.63,208.74,-1.00*07
$PENV,150848,1005.63,208.66,-1.00*04
$GNVTG,,T,,M,0.132,N,0.245,K,A*3E
$GNGGA,161838.00,3259.18724,N,09643.38298,W,1,12,0.68,204.8,M,-25.3,M,,*7A
$PTH,150934*6A
$PENV,151098,1005.63,208.78,-1.00*0F
$PENV,151349,1005.62,209.12,-1.00*0C
$PENV,151599,1005.62,209.18,-1.00*0D
$PENV,151850,1005.62,209.08,-1.00*04
$GNVTG,,T,,M,0.183,N,0.339,K,A*3E
$GNGGA,161839.00,3259.18728,N,09643.38300,W,1,12,0.70,204.7,M,-25.3,M,,*71
$PTH,151928*66
$PENV,152100,1005.61,209.24,-1.00*06
$PENV,152351,1005.61,209.44,-1.00*06
$PENV,152601,1005.60,209.67,-1.00*06
$PENV,152852,1005.60,209.54,-1.00*0E
$GNVTG,,T,,M,0.072,N,0.133,K,A*39
$GNGGA,161840.00,3259.18730,N,09643.38303,W,1,12,0.70,204.6,M,-25.3,M,,*74
$PTH,152931*6D
$PENV,153102,1005.59,209.82,-1.00*02
$PENV,153352,1005.60,209.69,-1.00*0A
$PENV,153603,1005.59,209.80,-1.00*06
$PENV,153853,1005.58,210.20,-1.00*0E
$GNVTG,,T,,M,0.194,N,0.360,K,A*34
$GNGGA,161841.00,3259.18728,N,09643.38302,W,1,12,0.70,204.5,M,-25.3,M,,*7E
$PTH,153922*6E
$PENV,154104,1005.60,209.72,-1.00*06
$PENV,154354,1005.58,210.12,-1.00*04
$PENV,154605,1005.59,209.99,-1.00*0F
$PENV,154855,1005.57,210.32,-1.00*03
$GNVTG,,T,,M,0.225,N,0.416,K,A*3B
$GNGGA,161842.00,3259.18725,N,09643.38296,W,1,12,0.70,204.3,M,-25.3,M,,*7A
$PTH,154926*6D
$PENV,155106,1005.57,210.40,-1.00*08
$PENV,155356,1005.55,210.98,-1.00*08
$PENV,155606,1005.57,210.54,-1.00*0A
$PENV,155857,1005.56,210.62,-1.00*04
$GNVTG,,T,,M,0.211,N,0.390,K,A*35
$GNGGA,161843.00,3259.18722,N,09643.38297,W,1,12,0.68,204.3,M,-25.3,M,,*74
$PTH,155918*61
$PENV,156107,1005.55,210.84,-1.00*00
$PENV,156358,1005.55,210.86,-1.00*0A
$PENV,156608,1005.55,210.89,-1.00*05
$PENV,156859,1005.56,210.75,-1.00*0F
$GNVTG,,T,,M,0.085,N,0.157,K,A*33
$GNGGA,161844.00,3259.18720,N,09643.38299,W,1,12,0.73,204.4,M,-25.3,M,,*72
$PTH,156926*6F
$PENV,157109,1005.57,210.57,-1.00*03
$PENV,157359,1005.54,211.28,-1.00*0E
$PENV,157610,1005.56,210.78,-1.00*00
$PENV,157860,1005.56,210.78,-1.00*09
$GNVTG,,T,,M,0.120,N,0.223,K,A*3D
$GNGGA,161845.00,3259.18719,N,09643.38300,W,1,12,0.73,204.6,M,-25.3,M,,*7A
$PTH,157930*69
$PENV,158111,1005.54,211.19,-1.00*0D
$PENV,158361,1005.56,210.82,-1.00*09
$PENV,158612,1005.56,210.59,-1.00*0E
$PENV,158862,1005.58,210.24,-1.00*03
$GNVTG,,T,,M,0.226,N,0.418,K,A*36
$GNGGA,161846.00,3259.18718,N,09643.38304,W,1,12,0.73,204.8,M,-25.3,M,,*72
$PTH,158932*64
$PENV,159113,1005.57,210.46,-1.00*06
$PENV,159363,1005.57,210.30,-1.00*02
$PENV,159613,1005.57,210.38,-1.00*08
$PENV,159864,1005.58,210.27,-1.00*07
$GNVTG,,T,,M,0.255,N,0.472,K,A*3E
$GNGGA,161847.00,3259.18715,N,09643.38302,W,1,12,0.73,204.7,M,-25.3,M,,*77
$PTH,159935*62
$PENV,160114,1005.57,210.32,-1.00*08
$PENV,160365,1005.57,210.40,-1.00*09
$PENV,160615,1005.59,209.96,-1.00*06
$PENV,160866,1005.58,210.12,-1.00*09
$GNVTG,,T,,M,0.081,N,0.150,K,A*30
$GNGGA,161848.00,3259.18711,N,09643.38296,W,1,12,0.74,204.7,M,-25.3,M,,*77
$PTH,160930*6D
$PENV,161116,1005.58,210.18,-1.00*0C
$PENV,161366,1005.58,210.28,-1.00*0A
$PENV,161617,1005.58,210.10,-1.00*02
$PENV,161867,1005.59,209.96,-1.00*0C
$GNVTG,,T,,M,0.131,N,0.243,K,A*3B
$GNGGA,161849.00,3259.18711,N,09643.38295,W,1,12,0.73,204.7,M,-25.3,M,,*72
$PTH,161933*6F
$PENV,162118,1005.58,210.19,-1.00*00
$PENV,162368,1005.59,209.99,-1.00*04
$PENV,162619,1005.58,210.15,-1.00*0A
$PENV,162869,1005.58,210.22,-1.00*07
$GNVTG,,T,,M,0.063,N,0.116,K,A*3E
$GNGGA,161850.00,3259.18712,N,09643.38294,W,1,12,0.73,204.7,M,-25.3,M,,*78
$PTH,162935*6A
$PENV,163120,1005.59,209.99,-1.00*0B
$PENV,163370,1005.59,210.00,-1.00*04
$PENV,163621,1005.58,210.08,-1.00*0C
$PENV,163871,1005.60,209.65,-1.00*0F
$GNVTG,,T,,M,0.103,N,0.191,K,A*36
$GNGGA,161851.00,3259.18713,N,09643.38294,W,1,12,0.74,204.7,M,-25.3,M,,*7F
$PTH,163933*6D
$PENV,164121,1005.60,209.62,-1.00*03
$PENV,164372,1005.59,209.98,-1.00*08
$PENV,164622,1005.58,210.20,-1.00*02
$PENV,164873,1005.57,210.33,-1.00*05
$GNVTG,,T,,M,0.157,N,0.291,K,A*34
$GNGGA,161852.00,3259.18715,N,09643.38290,W,1,12,0.74,204.7,M,-25.3,M,,*7E
$PTH,164928*60
$PENV,165123,1005.59,209.93,-1.00*04
$PENV,165374,1005.58,210.12,-1.00*04
$PENV,165624,1005.59,209.93,-1.00*04
$PENV,165875,1005.58,210.11,-1.00*0D
$GNVTG,,T,,M,0.132,N,0.245,K,A*3E
$GNGGA,161853.00,3259.18717,N,09643.38288,W,1,12,0.73,204.8,M,-25.3,M,,*7C
$PTH,165934*6C
$PENV,166125,1005.57,210.38,-1.00*06
$PENV,166375,1005.57,210.35,-1.00*0C
$PENV,166626,1005.57,210.33,-1.00*09
$PENV,166876,1005.58,210.25,-1.00*0A
$GNVTG,,T,,M,0.046,N,0.085,K,A*32
$GNGGA,161854.00,3259.18718,N,09643.38287,W,1,12,0.73,204.8,M,-25.3,M,,*7B
$PTH,166925*6F
$PENV,167127,1005.58,210.28,-1.00*0B
$PENV,167377,1005.57,210.47,-1.00*0A
$PENV,167628,1005.58,210.07,-1.00*0E
$PENV,167878,1005.57,210.47,-1.00*0E
$GNVTG,,T,,M,0.047,N,0.086,K,A*30
$GNGGA,161855.00,3259.18718,N,09643.38286,W,1,12,0.68,205.0,M,-25.3,M,,*78
$PTH,167933*69
$PENV,168129,1005.56,210.58,-1.00*03
$PENV,168379,1005.58,210.12,-1.00*04
$PENV,168629,1005.57,210.51,-1.00*0C
$PENV,168880,1005.56,210.71,-1.00*02
$GNVTG,,T,,M,0.052,N,0.096,K,A*35
$GNGGA,161856.00,3259.18718,N,09643.38285,W,1,12,0.68,205.1,M,-25.3,M,,*79
$PTH,168934*61
$PENV,169130,1005.56,210.69,-1.00*08
$PENV,169381,1005.56,210.67,-1.00*0E
$PENV,169631,1005.56,210.83,-1.00*0A
$PENV,169882,1005.57,210.39,-1.00*0C
$GNVTG,,T,,M,0.108,N,0.199,K,A*35
$GNGGA,161857.00,3259.18720,N,09643.38286,W,1,12,0.68,205.2,M,-25.3,M,,*73
$PTH,169925*60
$PENV,170132,1005.56,210.65,-1.00*0E
$PENV,170383,1005.56,210.62,-1.00*01
$PENV,170633,1005.58,210.15,-1.00*01
$PENV,170884,1005.58,210.10,-1.00*06
$GNVTG,,T,,M,0.092,N,0.171,K,A*31
$GNGGA,161858.00,3259.18722,N,09643.38287,W,1,12,0.68,205.2,M,-25.3,M,,*7F
$PTH,170935*69
$PENV,171134,1005.58,210.18,-1.00*0D
$PENV,171384,1005.58,210.19,-1.00*05
$PENV,171635,1005.58,210.20,-1.00*00
$PENV,171885,1005.58,210.26,-1.00*03
$GNVTG,,T,,M,0.148,N,0.273,K,A*36
$GNGGA,161859.00,3259.18724,N,09643.38288,W,1,12,0.68,205.2,M,-25.3,M,,*77
$PTH,171936*6B
$PENV,172136,1005.57,210.32,-1.00*0B
$PENV,172386,1005.59,209.99,-1.00*05
$PENV,172637,1005.58,210.03,-1.00*00
$PENV,172887,1005.59,209.90,-1.00*06
$GNVTG,,T,,M,0.127,N,0.236,K,A*3E
$GNGGA,161900.00,3259.18727,N,09643.38289,W,1,12,0.68,205.2,M,-25.3,M,,*78
$PTH,172931*6F
$PENV,173138,1005.60,209.54,-1.00*08
$PENV,173388,1005.59,209.78,-1.00*05
$PENV,173638,1005.61,209.42,-1.00*09
$PENV,173889,1005.59,209.89,-1.00*01
$GNVTG,,T,,M,0.096,N,0.178,K,A*3C
$GNGGA,161901.00,3259.18728,N,09643.38291,W,1,12,0.68,205.2,M,-25.3,M,,*7F
$PTH,173938*67
$PENV,174139,1005.61,209.31,-1.00*0C
$PENV,174390,1005.61,209.21,-1.00*0C
$PENV,174640,1005.61,209.36,-1.00*02
$PENV,174891,1005.63,208.89,-1.00*07
$GNVTG,,T,,M,0.013,N,0.023,K,A*3E
$GNGGA,161902.00,3259.18728,N,09643.38292,W,1,12,0.68,205.0,M,-25.3,M,,*7D
$PTH,174927*6E
$PENV,175141,1005.63,208.81,-1.00*0A
$PENV,175392,1005.63,208.83,-1.00*04
$PENV,175642,1005.63,208.73,-1.00*03
$PENV,175892,1005.63,208.65,-1.00*07
$GNVTG,,T,,M,0.086,N,0.159,K,A*3E
$GNGGA,161903.00,3259.18730,N,09643.38291,W,1,12,0.68,204.9,M,-25.3,M,,*7E
$PTH,175930*69
$PENV,176143,1005.63,208.70,-1.00*05
$PENV,176393,1005.63,208.65,-1.00*0E
$PENV,176644,1005.63,208.74,-1.00*01
$PENV,176894,1005.65,208.24,-1.00*01
$GNVTG,,T,,M,0.063,N,0.116,K,A*3E
$GNGGA,161904.00,3259.18731,N,09643.38289,W,1,12,0.68,204.9,M,-25.3,M,,*71
$PTH,176929*62
$PENV,177145,1005.65,208.36,-1.00*06
$PENV,177395,1005.64,208.54,-1.00*0C
$PENV,177646,1005.65,208.35,-1.00*01
$PENV,177896,1005.63,208.72,-1.00*07
$GNVTG,,T,,M,0.123,N,0.228,K,A*35
$GNGGA,161905.00,3259.18733,N,09643.38291,W,1,12,0.68,204.8,M,-25.3,M,,*7A
$PTH,177932*69
$PENV,178146,1005.64,208.41,-1.00*0B
$PENV,178397,1005.64,208.54,-1.00*01
$PENV,178647,1005.64,208.59,-1.00*04
$PENV,178898,1005.65,208.36,-1.00*00
$GNVTG,,T,,M,0.066,N,0.122,K,A*3C
$GNGGA,161906.00,3259.18736,N,09643.38291,W,1,12,0.68,204.6,M,-25.3,M,,*72
$PTH,178926*63
$PENV,179148,1005.66,208.06,-1.00*05
$PENV,179399,1005.64,208.61,-1.00*08
$PENV,179649,1005.63,208.78,-1.00*0F
$PENV,179899,1005.65,208.12,-1.00*06
$GNVTG,,T,,M,0.124,N,0.231,K,A*3A
$GNGGA,161907.00,3259.18736,N,09643.38289,W,1,12,0.68,204.5,M,-25.3,M,,*79
$PTH,179925*61
$PENV,180150,1005.64,208.49,-1.00*03
$PENV,180400,1005.63,208.68,-1.00*07
$PENV,180651,1005.63,208.83,-1.00*04
$PENV,180901,1005.62,209.02,-1.00*07
$GNVTG,,T,,M,0.133,N,0.246,K,A*3C
$GNGGA,161908.00,3259.18734,N,09643.38288,W,1,12,0.68,204.3,M,-25.3,M,,*73
$PTH,180927*65
$PENV,181152,1005.63,208.79,-1.00*04
$PENV,181402,1005.63,208.85,-1.00*07
$PENV,181653,1005.64,208.47,-1.00*08
$PENV,181903,1005.64,208.56,-1.00*02
$GNVTG,,T,,M,0.175,N,0.325,K,A*3A
$GNGGA,161909.00,3259.18736,N,09643.38284,W,1,12,0.68,204.2,M,-25.3,M,,*7D
$PTH,181932*60
$PENV,182154,1005.63,208.78,-1.00*00
$PENV,182404,1005.63,208.88,-1.00*0F
$PENV,182655,1005.63,208.74,-1.00*0A
$PENV,182905,1005.64,208.60,-1.00*02
$GNVTG,,T,,M,0.044,N,0.081,K,A*34
$GNGGA,161910.00,3259.18741,N,09643.38280,W,1,12,0.68,204.1,M,-25.3,M,,*72
$PTH,182930*61
$PENV,183155,1005.63,208.88,-1.00*0F
$PENV,183406,1005.63,208.75,-1.00*0E
$PENV,183656,1005.62,208.95,-1.00*06
$PENV,183907,1005.64,208.58,-1.00*0A
$GNVTG,,T,,M,0.022,N,0.040,K,A*39
$GNGGA,161911.00,3259.18743,N,09643.38276,W,1,12,0.68,204.1,M,-25.3,M,,*78
$PTH,183930*60
$PENV,184157,1005.63,208.78,-1.00*05
$PENV,184408,1005.63,208.85,-1.00*08
$PENV,184658,1005.63,208.83,-1.00*09
$PENV,184909,1005.64,208.51,-1.00*0A
$GNVTG,,T,,M,0.091,N,0.169,K,A*3B
$GNGGA,161912.00,3259.18745,N,09643.38273,W,1,12,0.68,204.1,M,-25.3,M,,*78
$PTH,184925*63
$PENV,185159,1005.63,208.88,-1.00*05
$PENV,185409,1005.63,208.76,-1.00*04
$PENV,185660,1005.64,208.59,-1.00*03
$PENV,185910,1005.63,208.79,-1.00*0E
$GNVTG,,T,,M,0.082,N,0.151,K,A*32
$GNGGA,161913.00,3259.18746,N,09643.38270,W,1,12,0.68,204.0,M,-25.3,M,,*78
$PTH,185931*67
$PENV,186161,1005.62,208.97,-1.00*02
$PENV,186411,1005.63,208.65,-1.00*0C
$PENV,186662,1005.63,208.89,-1.00*08
$PENV,186912,1005.63,208.86,-1.00*0F
$GNVTG,,T,,M,0.124,N,0.230,K,A*3B
$GNGGA,161914.00,3259.18749,N,09643.38269,W,1,12,0.68,203.9,M,-25.3,M,,*76
$PTH,186925*61
$PENV,187163,1005.62,208.93,-1.00*05
$PENV,187413,1005.63,208.91,-1.00*04
$PENV,187664,1005.62,209.00,-1.00*0E
$PENV,187914,1005.62,209.02,-1.00*04
$GNVTG,,T,,M,0.073,N,0.135,K,A*3E
$GNGGA,161915.00,3259.18752,N,09643.38270,W,1,12,0.68,203.9,M,-25.3,M,,*75
$PTH,187929*6C
$PENV,188164,1005.63,208.81,-1.00*0F
$PENV,188415,1005.61,209.23,-1.00*07
$PENV,188665,1005.61,209.26,-1.00*07
$PENV,188916,1005.63,208.74,-1.00*08
$GNVTG,,T,,M,0.130,N,0.240,K,A*39
$GNGGA,161916.00,3259.18754,N,09643.38269,W,1,12,0.68,203.9,M,-25.3,M,,*78
$PTH,188926*6C
$PENV,189166,1005.62,208.93,-1.00*0E
$PENV,189417,1005.62,208.95,-1.00*0B
$PENV,189667,1005.63,208.90,-1.00*0A
$PENV,189918,1005.62,209.15,-1.00*00
$GNVTG,,T,,M,0.099,N,0.183,K,A*37
$GNGGA,161917.00,3259.18757,N,09643.38264,W,1,12,0.68,204.0,M,-25.3,M,,*79
$PTH,189931*6B
$PENV,190168,1005.64,208.54,-1.00*05
$PENV,190418,1005.62,208.95,-1.00*0C
$PENV,190669,1005.60,209.50,-1.00*02
$PENV,190919,1005.61,209.28,-1.00*04
$GNVTG,,T,,M,0.205,N,0.380,K,A*31
$GNGGA,161918.00,3259.18758,N,09643.38264,W,1,12,0.68,203.9,M,-25.3,M,,*77
$PTH,190923*60
$PENV,191170,1005.61,209.34,-1.00*0F
$PENV,191420,1005.60,209.65,-1.00*0A
$PENV,191671,1005.61,209.32,-1.00*0F
$PENV,191921,1005.62,209.03,-1.00*04
$GNVTG,,T,,M,0.089,N,0.165,K,A*3E
$GNGGA,161919.00,3259.18760,N,09643.38265,W,1,12,0.68,203.9,M,-25.3,M,,*7C
$PTH,191932*61
$PENV,192172,1005.62,209.08,-1.00*02
$PENV,192422,1005.63,208.83,-1.00*01
$PENV,192672,1005.62,209.06,-1.00*0B
$PENV,192923,1005.63,208.81,-1.00*0F
$GNVTG,,T,,M,0.048,N,0.089,K,A*30
$GNGGA,161920.00,3259.18762,N,09643.38261,W,1,12,0.68,203.8,M,-25.3,M,,*71
$PTH,192927*66
$PENV,193173,1005.64,208.52,-1.00*0A
$PENV,193424,1005.62,209.03,-1.00*0E
$PENV,193674,1005.63,208.81,-1.00*03
$PENV,193925,1005.62,208.96,-1.00*0F
$GNVTG,,T,,M,0.032,N,0.059,K,A*30
$GNGGA,161921.00,3259.18763,N,09643.38260,W,1,12,0.72,203.8,M,-25.3,M,,*7B
$PTH,193929*69
$PENV,194175,1005.63,208.90,-1.00*02
$PENV,194426,1005.62,209.17,-1.00*0E
$PENV,194676,1005.64,208.41,-1.00*0D
$PENV,194927,1005.63,208.83,-1.00*0F
$GNVTG,,T,,M,0.042,N,0.077,K,A*3B
$GNGGA,161922.00,3259.18765,N,09643.38259,W,1,12,0.68,203.6,M,-25.3,M,,*71
$PTH,194931*67
$PENV,195177,1005.63,208.79,-1.00*06
$PENV,195427,1005.63,208.76,-1.00*09
$PENV,195678,1005.63,208.71,-1.00*06
$PENV,195928,1005.64,208.56,-1.00*0E
$GNVTG,,T,,M,0.117,N,0.216,K,A*3F
$GNGGA,161923.00,3259.18765,N,09643.38260,W,1,12,0.68,203.4,M,-25.3,M,,*78
$PTH,195932*65
$PENV,196179,1005.63,208.71,-1.00*03
$PENV,196429,1005.63,208.69,-1.00*0A
$PENV,196680,1005.64,208.56,-1.00*00
$GNVTG,,T,,M,0.049,N,0.090,K,A*39
$GNGGA,161924.00,3259.18766,N,09643.38262,W,1,12,0.68,203.4,M,-25.3,M,,*7E
$PTH,196925*60
$PENV,196930,1005.65,208.17,-1.00*00
$PENV,197181,1005.63,208.73,-1.00*07
$PENV,197431,1005.62,209.05,-1.00*08
$PENV,197682,1005.63,208.87,-1.00*08
$GNVTG,,T,,M,0.049,N,0.091,K,A*38
$GNGGA,161925.00,3259.18768,N,09643.38263,W,1,12,0.68,203.3,M,-25.3,M,,*77
$PTH,197930*65
$PENV,197932,1005.64,208.61,-1.00*03
$PENV,198182,1005.63,208.79,-1.00*01
$PENV,198433,1005.64,208.46,-1.00*05
$PENV,198683,1005.64,208.52,-1.00*09
$GNVTG,,T,,M,0.043,N,0.079,K,A*34
$GNGGA,161926.00,3259.18769,N,09643.38264,W,1,12,0.68,203.3,M,-25.3,M,,*72
$PTH,198931*6B
$PENV,198934,1005.64,208.58,-1.00*00
$PENV,199184,1005.65,208.32,-1.00*0F
$PENV,199435,1005.65,208.32,-1.00*00
$PENV,199685,1005.64,208.63,-1.00*0C
$GNVTG,,T,,M,0.081,N,0.150,K,A*30
$GNGGA,161927.00,3259.18768,N,09643.38265,W,1,12,0.68,203.3,M,-25.3,M,,*73
$PTH,199924*6E
$PENV,199936,1005.65,208.35,-1.00*09
$PENV,200186,1005.66,207.84,-1.00*0F
$PENV,200437,1005.64,208.47,-1.00*02
$PENV,200687,1005.65,208.11,-1.00*09
$GNVTG,,T,,M,0.128,N,0.237,K,A*30
$GNGGA,161928.00,3259.18766,N,09643.38264,W,1,12,0.68,203.3,M,-25.3,M,,*73
$PTH,200930*68
$PENV,200937,1005.66,208.04,-1.00*0A
$PENV,201188,1005.65,208.24,-1.00*06
$PENV,201438,1005.66,207.94,-1.00*0F
$PENV,201689,1005.66,207.93,-1.00*00
$GNVTG,,T,,M,0.067,N,0.124,K,A*3B
$GNGGA,161929.00,3259.18765,N,09643.38265,W,1,12,0.68,203.3,M,-25.3,M,,*70
$PTH,201922*6A
$PENV,201939,1005.67,207.78,-1.00*00
$PENV,202190,1005.67,207.79,-1.00*09
$PENV,202440,1005.65,208.15,-1.00*06
$PENV,202691,1005.68,207.51,-1.00*0A
$GNVTG,,T,,M,0.086,N,0.158,K,A*3F
$GNGGA,161930.00,3259.18767,N,09643.38264,W,1,12,0.68,203.2,M,-25.3,M,,*7A
$PTH,202936*6C
$PENV,202941,1005.65,208.11,-1.00*0E
$PENV,203191,1005.66,207.91,-1.00*0E
$PENV,203442,1005.66,208.04,-1.00*06
$PENV,203692,1005.66,207.92,-1.00*09
$GNVTG,,T,,M,0.132,N,0.244,K,A*3F
$GNGGA,161931.00,3259.18769,N,09643.38268,W,1,12,0.68,203.1,M,-25.3,M,,*7A
$PTH,203935*6E
$PENV,203943,1005.67,207.66,-1.00*00
$PENV,204193,1005.66,207.97,-1.00*0D
$PENV,204444,1005.66,207.89,-1.00*0D
$PENV,204694,1005.66,207.87,-1.00*0C
$GNVTG,,T,,M,0.019,N,0.034,K,A*32
$GNGGA,161932.00,3259.18770,N,09643.38270,W,1,12,0.68,203.2,M,-25.3,M,,*7B
$PTH,204923*6E
$PENV,204945,1005.65,208.24,-1.00*0A
$PENV,205195,1005.65,208.24,-1.00*0E
$PENV,205445,1005.66,208.05,-1.00*06
$PENV,205696,1005.64,208.44,-1.00*0D
$GNVTG,,T,,M,0.212,N,0.393,K,A*35
$GNGGA,161933.00,3259.18766,N,09643.38271,W,1,12,0.68,203.2,M,-25.3,M,,*7C
$PTH,205945*6F
$PENV,205946,1005.63,208.65,-1.00*0B
$PENV,206197,1005.63,208.82,-1.00*05
$PENV,206447,1005.62,208.97,-1.00*08
$PENV,206698,1005.64,208.48,-1.00*0C
$GNVTG,,T,,M,0.021,N,0.039,K,A*34
$GNGGA,161934.00,3259.18763,N,09643.38270,W,1,12,0.68,203.1,M,-25.3,M,,*7C
$PTH,206930*6E
$PENV,206948,1005.64,208.44,-1.00*02
$PENV,207199,1005.62,209.01,-1.00*01
$PENV,207449,1005.63,208.76,-1.00*09
$PENV,207699,1005.62,208.92,-1.00*0D
$GNVTG,,T,,M,0.124,N,0.230,K,A*3B
$GNGGA,161935.00,3259.18759,N,09643.38269,W,1,12,0.68,203.1,M,-25.3,M,,*7C
$PTH,207942*6A
$PENV,207950,1005.63,208.85,-1.00*00
$PENV,208200,1005.62,209.03,-1.00*0F
$PENV,208451,1005.62,209.02,-1.00*0C
$PENV,208701,1005.62,209.08,-1.00*00
$GNVTG,,T,,M,0.068,N,0.125,K,A*35
$GNGGA,161936.00,3259.18755,N,09643.38269,W,1,12,0.68,203.0,M,-25.3,M,,*72
$PTH,208930*60
$PENV,208952,1005.63,208.74,-1.00*03
$PENV,209202,1005.63,208.74,-1.00*0C
$PENV,209453,1005.63,208.69,-1.00*02
$PENV,209703,1005.62,209.02,-1.00*09
$GNVTG,,T,,M,0.083,N,0.153,K,A*31
$GNGGA,161937.00,3259.18752,N,09643.38270,W,1,12,0.68,202.8,M,-25.3,M,,*75
$PTH,209930*61
$PENV,209953,1005.63,208.91,-1.00*08
$PENV,210204,1005.63,208.81,-1.00*08
$PENV,210454,1005.63,208.71,-1.00*04
$PENV,210705,1005.63,208.88,-1.00*05
$GNVTG,,T,,M,0.060,N,0.111,K,A*3A
$GNGGA,161938.00,3259.18750,N,09643.38271,W,1,12,0.69,202.8,M,-25.3,M,,*78
$PTH,210925*6D
$PENV,210955,1005.62,209.07,-1.00*09
$PENV,211206,1005.63,208.77,-1.00*02
$PENV,211456,1005.62,209.07,-1.00*06
$PENV,211707,1005.64,208.50,-1.00*04
$GNVTG,,T,,M,0.041,N,0.076,K,A*39
$GNGGA,161939.00,3259.18748,N,09643.38272,W,1,12,0.68,202.8,M,-25.3,M,,*72
$PTH,211931*69
$PENV,211957,1005.63,208.66,-1.00*0D
$PENV,212207,1005.60,209.47,-1.00*01
$PENV,212458,1005.63,208.91,-1.00*04
$PENV,212708,1005.63,208.73,-1.00*0E
$GNVTG,,T,,M,0.042,N,0.078,K,A*34
$GNGGA,161940.00,3259.18745,N,09643.38274,W,1,12,0.68,202.8,M,-25.3,M,,*77
$PTH,212924*6E
$PENV,212959,1005.63,208.74,-1.00*03
$PENV,213209,1005.64,208.54,-1.00*09
$PENV,213460,1005.64,208.49,-1.00*0C
$PENV,213710,1005.63,208.69,-1.00*0D
$GNVTG,,T,,M,0.154,N,0.285,K,A*32
$GNGGA,161941.00,3259.18745,N,09643.38275,W,1,12,0.68,202.7,M,-25.3,M,,*78
$PTH,213929*62
$PENV,213961,1005.63,208.71,-1.00*0C
$PENV,214211,1005.64,208.62,-1.00*02
$PENV,214462,1005.63,208.76,-1.00*02
$PENV,214712,1005.64,208.39,-1.00*0A
$GNVTG,,T,,M,0.061,N,0.113,K,A*39
$GNGGA,161942.00,3259.18747,N,09643.38277,W,1,12,0.68,202.6,M,-25.3,M,,*7A
$PTH,214930*6D
$PENV,214963,1005.63,208.85,-1.00*02
$PENV,215213,1005.63,208.86,-1.00*0C
$PENV,215463,1005.63,208.66,-1.00*03
$PENV,215714,1005.63,208.83,-1.00*0B
$GNVTG,,T,,M,0.098,N,0.182,K,A*37
$GNGGA,161943.00,3259.18745,N,09643.38279,W,1,12,0.68,202.6,M,-25.3,M,,*77
$PTH,215932*6E
$PENV,215964,1005.63,208.71,-1.00*0F
$PENV,216215,1005.64,208.58,-1.00*0D
$PENV,216465,1005.65,208.17,-1.00*06
$PENV,216716,1005.63,208.82,-1.00*0B
$GNVTG,,T,,M,0.105,N,0.195,K,A*34
$GNGGA,161944.00,3259.18743,N,09643.38280,W,1,12,0.68,202.6,M,-25.3,M,,*70
$PTH,216945*6D
