$PVER,"Tempo V1 0.1.0 (0a5cd0e-dirty)",101*7C
$PSFC,266*18
$PST,1086,ARMED,LOGGING,manual_start*61
$PENV,1336,1003.52,266.73,-1.00*0B
$PENV,1586,1003.52,266.90,-1.00*0B
$GNVTG,,T,,M,0.541,N,1.002,K,A*3E
$GNGGA,151855.00,3259.18458,N,09643.38705,W,1,12,0.73,208.2,M,-25.3,M,,*77
$PTH,1799*66
$PENV,1836,1003.51,267.16,-1.00*01
$PENV,2087,1003.51,267.16,-1.00*00
$PENV,2337,1003.50,267.30,-1.00*0D
$PENV,2588,1003.51,267.17,-1.00*0B
$GNVTG,,T,,M,0.486,N,0.900,K,A*3E
$GNGGA,151856.00,3259.18450,N,09643.38697,W,1,12,0.88,208.0,M,-25.3,M,,*70
$PTH,2800*6A
$PENV,2838,1003.50,267.31,-1.00*08
$PENV,3088,1003.51,267.12,-1.00*0A
$PENV,3339,1003.51,267.05,-1.00*05
$PENV,3589,1003.52,266.87,-1.00*00
$GNVTG,,T,,M,0.166,N,0.307,K,A*38
$GNGGA,151857.00,3259.18451,N,09643.38688,W,1,12,0.84,208.5,M,-25.3,M,,*77
$PTH,3794*69
$PENV,3840,1003.50,267.44,-1.00*04
$PENV,4090,1003.52,266.94,-1.00*08
$PENV,4341,1003.52,266.91,-1.00*02
$PENV,4591,1003.51,267.09,-1.00*0A
$GNVTG,,T,,M,0.440,N,0.815,K,A*31
$GNGGA,151858.00,3259.18464,N,09643.38687,W,1,12,0.85,208.6,M,-25.3,M,,*73
$PTH,4799*63
$PENV,4841,1003.52,266.78,-1.00*0E
$PENV,5092,1003.51,267.23,-1.00*05
$PENV,5342,1003.52,266.95,-1.00*04
$PENV,5593,1003.53,266.65,-1.00*00
$GNVTG,,T,,M,0.299,N,0.554,K,A*3B
$GNGGA,151859.00,3259.18478,N,09643.38684,W,1,12,0.85,208.7,M,-25.3,M,,*7D
$PTH,5799*62
$PENV,5843,1003.52,266.78,-1.00*0D
$PENV,6093,1003.51,267.22,-1.00*06
$PENV,6344,1003.50,267.30,-1.00*0D
$PENV,6594,1003.48,267.82,-1.00*06
$GNVTG,,T,,M,0.495,N,0.917,K,A*3A
$GNGGA,151900.00,3259.18480,N,09643.38674,W,1,12,1.01,208.5,M,-25.3,M,,*77
$PTH,6788*61
$PENV,6845,1003.50,267.49,-1.00*09
$PENV,7095,1003.50,267.46,-1.00*02
$PENV,7345,1003.49,267.65,-1.00*05
$PENV,7596,1003.50,267.25,-1.00*01
$GNVTG,,T,,M,0.109,N,0.202,K,A*35
$GNGGA,151901.00,3259.18490,N,09643.38667,W,1,12,0.90,208.4,M,-25.3,M,,*7D
$PTH,7796*6F
$PENV,7846,1003.50,267.24,-1.00*00
$PENV,8097,1003.51,267.15,-1.00*08
$PENV,8347,1003.50,267.36,-1.00*06
$PENV,8597,1003.51,267.22,-1.00*09
$GNVTG,,T,,M,0.227,N,0.420,K,A*3C
$GNGGA,151902.00,3259.18491,N,09643.38670,W,1,12,0.85,207.8,M,-25.3,M,,*7E
$PTH,8799*6F
$PENV,8848,1003.49,267.56,-1.00*0C
$PENV,9098,1003.50,267.36,-1.00*06
$PENV,9349,1003.50,267.38,-1.00*07
$PENV,9599,1003.50,267.37,-1.00*03
$GNVTG,,T,,M,0.274,N,0.508,K,A*31
$GNGGA,151903.00,3259.18504,N,09643.38676,W,1,12,0.77,207.8,M,-25.3,M,,*79
$PTH,9797*60
$PENV,9849,1003.51,267.13,-1.00*04
$PENV,10100,1003.52,266.93,-1.00*32
$PENV,10350,1003.51,267.11,-1.00*3D
$PENV,10601,1003.50,267.30,-1.00*3E
$GNVTG,,T,,M,0.259,N,0.480,K,A*3F
$GNGGA,151904.00,3259.18520,N,09643.38686,W,1,12,0.74,207.7,M,-25.3,M,,*7B
$PTH,10790*5F
$PENV,10851,1003.51,267.21,-1.00*34
$PENV,11101,1003.51,267.03,-1.00*39
$PENV,11352,1003.51,267.23,-1.00*3F
$PENV,11602,1003.49,267.62,-1.00*33
$GNVTG,,T,,M,0.415,N,0.769,K,A*35
$GNGGA,151905.00,3259.18529,N,09643.38688,W,1,12,0.73,207.5,M,-25.3,M,,*78
$PTH,11793*5D
$PENV,11853,1003.50,267.45,-1.00*34
$PENV,12103,1003.49,267.54,-1.00*33
$PENV,12354,1003.49,267.56,-1.00*31
$PENV,12604,1003.49,267.69,-1.00*3D
$GNVTG,,T,,M,0.123,N,0.227,K,A*3A
$GNGGA,151906.00,3259.18540,N,09643.38685,W,1,12,0.84,207.4,M,-25.3,M,,*70
$PTH,12796*5B
$PENV,12854,1003.48,267.81,-1.00*31
$PENV,13105,1003.49,267.56,-1.00*36
$PENV,13355,1003.50,267.37,-1.00*3E
$PENV,13606,1003.49,267.68,-1.00*3F
$GNVTG,,T,,M,0.121,N,0.224,K,A*3B
$GNGGA,151907.00,3259.18551,N,09643.38686,W,1,12,0.73,207.3,M,-25.3,M,,*7D
$PTH,13801*5B
$PENV,13856,1003.49,267.72,-1.00*3F
$PENV,14106,1003.50,267.45,-1.00*38
$PENV,14357,1003.48,267.92,-1.00*3D
$PENV,14607,1003.48,267.79,-1.00*38
$GNVTG,,T,,M,0.199,N,0.369,K,A*30
$GNGGA,151908.00,3259.18565,N,09643.38686,W,1,12,0.73,207.3,M,-25.3,M,,*75
$PTH,14803*5E
$PENV,14858,1003.50,267.24,-1.00*3D
$PENV,15108,1003.50,267.43,-1.00*31
$PENV,15358,1003.50,267.30,-1.00*32
$PENV,15609,1003.49,267.53,-1.00*3E
$GNVTG,,T,,M,0.047,N,0.086,K,A*30
$GNGGA,151909.00,3259.18580,N,09643.38688,W,1,12,0.87,207.3,M,-25.3,M,,*7A
$PTH,15802*5E
$PENV,15859,1003.49,267.69,-1.00*3C
$PENV,16110,1003.49,267.73,-1.00*30
$PENV,16360,1003.49,267.63,-1.00*34
$PENV,16611,1003.50,267.24,-1.00*3C
$GNVTG,185.60,T,,M,0.764,N,1.415,K,A*2D
$GNGGA,151910.00,3259.18540,N,09643.38663,W,1,12,0.73,208.1,M,-25.3,M,,*7D
$PTH,16801*5E
$PENV,16861,1003.47,268.10,-1.00*3B
$PENV,17111,1003.50,267.39,-1.00*36
$PENV,17362,1003.50,267.34,-1.00*3D
$PENV,17612,1003.50,267.42,-1.00*3E
$GNVTG,,T,,M,0.073,N,0.136,K,A*3D
$GNGGA,151911.00,3259.18510,N,09643.38641,W,1,12,0.73,208.6,M,-25.3,M,,*7E
$PTH,17803*5D
$PENV,17863,1003.50,267.38,-1.00*3B
$PENV,18113,1003.51,267.11,-1.00*30
$PENV,18363,1003.49,267.63,-1.00*39
$PENV,18614,1003.48,268.00,-1.00*37
$GNVTG,,T,,M,0.288,N,0.533,K,A*3A
$GNGGA,151912.00,3259.18498,N,09643.38627,W,1,12,0.91,208.9,M,-25.3,M,,*7F
$PTH,18789*5F
$PENV,18864,1003.49,267.68,-1.00*3E
$PENV,19115,1003.48,267.79,-1.00*31
$PENV,19365,1003.49,267.63,-1.00*3E
$PENV,19615,1003.50,267.50,-1.00*34
$GNVTG,,T,,M,0.322,N,0.597,K,A*35
$GNGGA,151913.00,3259.18486,N,09643.38610,W,1,12,0.73,209.2,M,-25.3,M,,*73
$PTH,19801*51
$PENV,19866,1003.50,267.32,-1.00*3A
$PENV,20116,1003.49,267.63,-1.00*32
$PENV,20367,1003.51,267.03,-1.00*39
$PENV,20617,1003.51,267.22,-1.00*38
$GNVTG,,T,,M,0.105,N,0.194,K,A*35
$GNGGA,151914.00,3259.18480,N,09643.38598,W,1,12,0.73,209.4,M,-25.3,M,,*77
$PTH,20791*5D
$PENV,20867,1003.50,267.32,-1.00*31
$PENV,21118,1003.51,267.16,-1.00*36
$PENV,21368,1003.51,267.12,-1.00*37
$PENV,21619,1003.52,266.91,-1.00*3D
$GNVTG,,T,,M,0.157,N,0.291,K,A*34
$GNGGA,151915.00,3259.18474,N,09643.38594,W,1,12,0.73,209.5,M,-25.3,M,,*70
$PTH,21799*54
$PENV,21869,1003.51,267.13,-1.00*3C
$PENV,22120,1003.52,266.74,-1.00*38
$PENV,22370,1003.50,267.27,-1.00*3A
$PENV,22620,1003.52,266.87,-1.00*33
$GNVTG,,T,,M,0.352,N,0.652,K,A*38
$GNGGA,151916.00,3259.18470,N,09643.38589,W,1,12,0.73,209.4,M,-25.3,M,,*7A
$PTH,22798*56
$PENV,22871,1003.51,266.96,-1.00*3A
$PENV,23121,1003.49,267.51,-1.00*34
$PENV,23372,1003.51,267.07,-1.00*3A
$PENV,23622,1003.52,266.83,-1.00*34
$GNVTG,,T,,M,0.552,N,1.022,K,A*3E
$GNGGA,151917.00,3259.18485,N,09643.38589,W,1,12,0.73,209.4,M,-25.3,M,,*71
$PTH,23799*56
$PENV,23872,1003.51,267.12,-1.00*35
$PENV,24123,1003.52,266.81,-1.00*37
$PENV,24373,1003.51,266.99,-1.00*3A
$PENV,24624,1003.52,266.87,-1.00*31
$GNVTG,,T,,M,0.154,N,0.285,K,A*32
$GNGGA,151918.00,3259.18489,N,09643.38595,W,1,12,0.72,209.1,M,-25.3,M,,*7B
$PTH,24801*5F
$PENV,24874,1003.53,266.55,-1.00*34
$PENV,25125,1003.52,266.92,-1.00*32
$PENV,25375,1003.51,267.20,-1.00*3E
$PENV,25625,1003.50,267.32,-1.00*3C
$GNVTG,,T,,M,0.416,N,0.770,K,A*3E
$GNGGA,151919.00,3259.18487,N,09643.38598,W,1,12,0.75,209.0,M,-25.3,M,,*7F
$PTH,25793*5A
$PENV,25876,1003.52,266.85,-1.00*3B
$PENV,26126,1003.53,266.60,-1.00*3E
$PENV,26377,1003.52,266.83,-1.00*34
$PENV,26627,1003.51,267.11,-1.00*3D
$GNVTG,,T,,M,0.259,N,0.479,K,A*39
$GNGGA,151920.00,3259.18487,N,09643.38602,W,1,12,0.73,208.9,M,-25.3,M,,*7B
$PTH,26797*5D
$PENV,26878,1003.50,267.38,-1.00*33
$PENV,27128,1003.51,267.02,-1.00*36
$PENV,27378,1003.52,266.89,-1.00*30
$PENV,27629,1003.52,266.70,-1.00*37
$GNVTG,,T,,M,0.386,N,0.714,K,A*32
$GNGGA,151921.00,3259.18493,N,09643.38601,W,1,12,0.81,208.4,M,-25.3,M,,*7C
$PTH,27797*5C
$PENV,27879,1003.50,267.29,-1.00*33
$PENV,28130,1003.51,267.10,-1.00*33
$PENV,28380,1003.51,266.99,-1.00*3A
$PENV,28631,1003.51,267.18,-1.00*3D
$GNVTG,,T,,M,0.376,N,0.697,K,A*37
$GNGGA,151922.00,3259.18490,N,09643.38600,W,1,12,0.73,207.8,M,-25.3,M,,*73
$PTH,28792*56
$PENV,28881,1003.51,267.04,-1.00*35
$PENV,29131,1003.52,266.82,-1.00*3A
$PENV,29382,1003.52,266.72,-1.00*3F
$PENV,29632,1003.51,267.15,-1.00*32
$GNVTG,,T,,M,0.150,N,0.278,K,A*34
$GNGGA,151923.00,3259.18492,N,09643.38602,W,1,12,0.73,207.7,M,-25.3,M,,*7D
$PTH,29802*51
$PENV,29883,1003.50,267.25,-1.00*34
$PENV,30133,1003.52,266.91,-1.00*32
$PENV,30384,1003.50,267.30,-1.00*34
$PENV,30634,1003.51,267.19,-1.00*30
$GNVTG,,T,,M,0.046,N,0.085,K,A*32
$GNGGA,151924.00,3259.18493,N,09643.38606,W,1,12,0.91,207.0,M,-25.3,M,,*74
$PTH,30793*5E
$PENV,30884,1003.52,266.83,-1.00*34
$PENV,31135,1003.52,266.83,-1.00*36
$PENV,31385,1003.51,267.07,-1.00*31
$PENV,31636,1003.52,266.89,-1.00*38
$GNVTG,,T,,M,0.317,N,0.586,K,A*33
$GNGGA,151925.00,3259.18502,N,09643.38604,W,1,12,0.73,206.6,M,-25.3,M,,*75
$PTH,31796*5A
$PENV,31886,1003.51,267.18,-1.00*37
$PENV,32136,1003.50,267.38,-1.00*35
$PENV,32387,1003.52,266.78,-1.00*3A
$PENV,32637,1003.51,267.22,-1.00*39
$GNVTG,,T,,M,0.110,N,0.204,K,A*3B
$GNGGA,151926.00,3259.18510,N,09643.38598,W,1,12,0.81,206.4,M,-25.3,M,,*7C
$PTH,32788*56
$PENV,32888,1003.50,267.24,-1.00*34
$PENV,33138,1003.51,266.97,-1.00*3F
$PENV,33389,1003.51,266.98,-1.00*38
$PENV,33639,1003.52,266.79,-1.00*3A
$GNVTG,,T,,M,0.108,N,0.201,K,A*37
$GNGGA,151927.00,3259.18519,N,09643.38595,W,1,12,0.88,206.3,M,-25.3,M,,*77
$PTH,33794*5A
$PENV,33889,1003.52,266.95,-1.00*3D
$PENV,34140,1003.51,267.07,-1.00*3F
$PENV,34390,1003.50,267.27,-1.00*33
$PENV,34641,1003.51,267.03,-1.00*3D
$GNVTG,,T,,M,0.096,N,0.178,K,A*3C
$GNGGA,151928.00,3259.18515,N,09643.38590,W,1,12,0.73,205.9,M,-25.3,M,,*7C
$PTH,34793*5A
$PENV,34891,1003.51,267.08,-1.00*35
$PENV,35141,1003.52,266.94,-1.00*37
$PENV,35392,1003.51,266.99,-1.00*35
$PENV,35642,1003.52,266.88,-1.00*3E
$GNVTG,,T,,M,0.237,N,0.439,K,A*35
$GNGGA,151929.00,3259.18516,N,09643.38587,W,1,12,0.75,205.8,M,-25.3,M,,*7F
$PTH,35786*5F
$PENV,35893,1003.53,266.68,-1.00*33
$PENV,36143,1003.52,266.91,-1.00*33
$PENV,36394,1003.52,266.78,-1.00*3C
$PENV,36644,1003.52,266.93,-1.00*31
$GNVTG,,T,,M,0.013,N,0.025,K,A*38
$GNGGA,151930.00,3259.18519,N,09643.38586,W,1,12,1.03,205.7,M,-25.3,M,,*76
$PTH,36782*58
$PENV,36894,1003.51,267.04,-1.00*3E
$PENV,37145,1003.50,267.25,-1.00*38
$PENV,37395,1003.50,267.24,-1.00*36
$PENV,37646,1003.51,267.21,-1.00*39
$GNVTG,,T,,M,0.354,N,0.655,K,A*39
$GNGGA,151931.00,3259.18521,N,09643.38584,W,1,12,0.75,205.7,M,-25.3,M,,*7E
$PTH,37786*5D
$PENV,37896,1003.51,267.04,-1.00*3D
$PENV,38146,1003.52,266.91,-1.00*38
$PENV,38397,1003.51,267.16,-1.00*3B
$PENV,38647,1003.53,266.67,-1.00*36
$GNVTG,,T,,M,0.112,N,0.208,K,A*35
$GNGGA,151932.00,3259.18520,N,09643.38584,W,1,12,0.75,205.5,M,-25.3,M,,*7E
$PTH,38791*54
$PENV,38898,1003.51,267.14,-1.00*3D
$PENV,39148,1003.50,267.42,-1.00*3A
$PENV,39399,1003.51,266.98,-1.00*33
$PENV,39649,1003.51,267.10,-1.00*3A
$GNVTG,,T,,M,0.045,N,0.083,K,A*37
$GNGGA,151933.00,3259.18517,N,09643.38585,W,1,12,0.97,205.1,M,-25.3,M,,*72
$PTH,39799*5D
$PENV,39899,1003.52,266.73,-1.00*3E
$PENV,40150,1003.52,266.93,-1.00*32
$PENV,40400,1003.52,266.79,-1.00*36
$PENV,40651,1003.52,266.76,-1.00*3F
$GNVTG,,T,,M,0.129,N,0.238,K,A*3E
$GNGGA,151934.00,3259.18517,N,09643.38584,W,1,12,0.75,204.8,M,-25.3,M,,*70
$PTH,40797*5D
$PENV,40901,1003.52,266.85,-1.00*39
$PENV,41151,1003.51,267.11,-1.00*3A
$PENV,41402,1003.51,267.03,-1.00*3A
$PENV,41652,1003.51,267.04,-1.00*3A
$GNVTG,,T,,M,0.364,N,0.673,K,A*3E
$GNGGA,151935.00,3259.18519,N,09643.38587,W,1,12,0.75,204.3,M,-25.3,M,,*77
$PTH,41800*5D
$PENV,41903,1003.51,267.10,-1.00*34
$PENV,42153,1003.50,267.27,-1.00*3F
$PENV,42403,1003.51,267.12,-1.00*38
$PENV,42654,1003.52,266.90,-1.00*30
$GNVTG,,T,,M,0.387,N,0.718,K,A*3F
$GNGGA,151936.00,3259.18528,N,09643.38591,W,1,12,0.78,204.3,M,-25.3,M,,*7C
$PTH,42808*56
$PENV,42904,1003.51,267.03,-1.00*32
$PENV,43155,1003.50,267.31,-1.00*3F
$PENV,43405,1003.51,267.20,-1.00*3E
$PENV,43656,1003.51,267.04,-1.00*3C
$GNVTG,,T,,M,0.277,N,0.513,K,A*38
$GNGGA,151937.00,3259.18526,N,09643.38588,W,1,12,0.75,204.5,M,-25.3,M,,*70
$PTH,43811*5F
$PENV,43906,1003.51,267.02,-1.00*30
$PENV,44156,1003.52,266.84,-1.00*36
$PENV,44407,1003.52,266.79,-1.00*35
$PENV,44657,1003.51,267.02,-1.00*3C
$GNVTG,,T,,M,0.267,N,0.495,K,A*36
$GNGGA,151938.00,3259.18524,N,09643.38583,W,1,12,0.75,204.5,M,-25.3,M,,*76
$PTH,44791*5F
$PENV,44908,1003.50,267.30,-1.00*39
$PENV,45158,1003.51,267.14,-1.00*32
$PENV,45409,1003.52,266.69,-1.00*3B
$PENV,45659,1003.53,266.46,-1.00*30
$GNVTG,,T,,M,0.133,N,0.247,K,A*3D
$GNGGA,151939.00,3259.18529,N,09643.38581,W,1,12,0.79,204.5,M,-25.3,M,,*74
$PTH,45792*5D
$PENV,45909,1003.52,266.74,-1.00*3A
$PENV,46160,1003.52,266.84,-1.00*31
$PENV,46410,1003.53,266.58,-1.00*33
$PENV,46661,1003.52,266.82,-1.00*31
$GNVTG,,T,,M,0.381,N,0.706,K,A*36
$GNGGA,151940.00,3259.18538,N,09643.38589,W,1,12,0.75,204.4,M,-25.3,M,,*7F
$PTH,46794*58
$PENV,46911,1003.53,266.67,-1.00*33
$PENV,47161,1003.53,266.46,-1.00*3E
$PENV,47412,1003.53,266.66,-1.00*3D
$PENV,47662,1003.52,266.79,-1.00*37
$GNVTG,,T,,M,0.146,N,0.271,K,A*3A
$GNGGA,151941.00,3259.18549,N,09643.38597,W,1,12,0.77,204.6,M,-25.3,M,,*77
$PTH,47787*5B
$PENV,47913,1003.51,266.98,-1.00*32
$PENV,48163,1003.54,266.38,-1.00*3D
$PENV,48414,1003.55,266.11,-1.00*32
$PENV,48664,1003.54,266.38,-1.00*3D
$GNVTG,,T,,M,0.129,N,0.240,K,A*31
$GNGGA,151942.00,3259.18562,N,09643.38596,W,1,12,0.86,205.0,M,-25.3,M,,*75
$PTH,48791*53
$PENV,48914,1003.55,265.99,-1.00*3C
$PENV,49165,1003.54,266.29,-1.00*3A
$PENV,49415,1003.52,266.87,-1.00*3A
$PENV,49666,1003.52,266.93,-1.00*39
$GNVTG,,T,,M,0.285,N,0.528,K,A*3D
$GNGGA,151943.00,3259.18575,N,09643.38599,W,1,12,0.75,205.2,M,-25.3,M,,*73
$PTH,49795*56
$PENV,49916,1003.53,266.66,-1.00*3A
$PENV,50166,1003.54,266.15,-1.00*3E
$PENV,50417,1003.55,266.03,-1.00*3B
$PENV,50667,1003.55,266.07,-1.00*3A
$GNVTG,,T,,M,0.159,N,0.294,K,A*3F
$GNGGA,151944.00,3259.18587,N,09643.38600,W,1,12,0.75,205.6,M,-25.3,M,,*7E
$PTH,50794*5F
$PENV,50918,1003.54,266.28,-1.00*31
$PENV,51168,1003.54,266.20,-1.00*37
$PENV,51419,1003.53,266.50,-1.00*34
$PENV,51669,1003.52,266.76,-1.00*34
$GNVTG,,T,,M,0.215,N,0.397,K,A*36
$GNGGA,151945.00,3259.18603,N,09643.38594,W,1,12,0.82,205.9,M,-25.3,M,,*79
$PTH,51796*5C
$PENV,51919,1003.53,266.52,-1.00*3B
$PENV,52170,1003.53,266.55,-1.00*38
$PENV,52420,1003.53,266.48,-1.00*34
$PENV,52671,1003.52,266.79,-1.00*31
$GNVTG,,T,,M,0.458,N,0.849,K,A*31
$GNGGA,151946.00,3259.18619,N,09643.38597,W,1,12,0.75,206.3,M,-25.3,M,,*73
$PTH,52796*5F
$PENV,52921,1003.51,266.98,-1.00*37
$PENV,53172,1003.54,266.32,-1.00*3D
$PENV,53422,1003.54,266.35,-1.00*3A
$PENV,53672,1003.52,266.74,-1.00*3E
$GNVTG,,T,,M,0.186,N,0.345,K,A*30
$GNGGA,151947.00,3259.18628,N,09643.38604,W,1,12,0.75,206.5,M,-25.3,M,,*7F
$PTH,53790*58
$PENV,53923,1003.54,266.30,-1.00*33
$PENV,54173,1003.52,266.83,-1.00*37
$PENV,54424,1003.53,266.59,-1.00*36
$PENV,54674,1003.52,266.78,-1.00*33
$GNVTG,,T,,M,0.168,N,0.311,K,A*31
$GNGGA,151948.00,3259.18630,N,09643.38600,W,1,12,0.97,206.6,M,-25.3,M,,*72
$PTH,54795*5A
$PENV,54925,1003.53,266.68,-1.00*38
$PENV,55175,1003.53,266.59,-1.00*36
$PENV,55425,1003.52,266.80,-1.00*33
$PENV,55676,1003.52,266.72,-1.00*3A
$GNVTG,,T,,M,0.303,N,0.562,K,A*3C
$GNGGA,151949.00,3259.18641,N,09643.38593,W,1,12,0.75,206.7,M,-25.3,M,,*71
$PTH,55796*58
$PENV,55926,1003.52,266.74,-1.00*36
$PENV,56177,1003.52,266.85,-1.00*37
$PENV,56427,1003.52,266.85,-1.00*37
$PENV,56677,1003.51,267.14,-1.00*3A
$GNVTG,,T,,M,0.201,N,0.373,K,A*39
$GNGGA,151950.00,3259.18653,N,09643.38590,W,1,12,0.75,206.5,M,-25.3,M,,*7B
$PTH,56799*54
$PENV,56928,1003.50,267.27,-1.00*3E
$PENV,57178,1003.52,266.69,-1.00*3B
$PENV,57429,1003.53,266.61,-1.00*33
$PENV,57679,1003.52,266.82,-1.00*38
$GNVTG,,T,,M,0.129,N,0.238,K,A*3E
$GNGGA,151951.00,3259.18666,N,09643.38585,W,1,12,0.87,206.9,M,-25.3,M,,*79
$PTH,57799*55
$PENV,57929,1003.54,266.34,-1.00*39
$PENV,58180,1003.52,266.91,-1.00*34
$PENV,58430,1003.53,266.65,-1.00*30
$PENV,58681,1003.52,266.78,-1.00*35
$GNVTG,,T,,M,0.282,N,0.522,K,A*30
$GNGGA,151952.00,3259.18676,N,09643.38576,W,1,12,0.75,207.3,M,-25.3,M,,*71
$PTH,58790*53
$PENV,58931,1003.53,266.55,-1.00*3F
$PENV,59182,1003.53,266.46,-1.00*3C
$PENV,59432,1003.54,266.26,-1.00*33
$PENV,59682,1003.54,266.39,-1.00*34
$GNVTG,,T,,M,0.051,N,0.094,K,A*34
$GNGGA,151953.00,3259.18688,N,09643.38570,W,1,12,0.75,207.8,M,-25.3,M,,*7C
$PTH,59791*53
$PENV,59933,1003.53,266.46,-1.00*3E
$PENV,60183,1003.53,266.64,-1.00*37
$PENV,60434,1003.54,266.28,-1.00*31
$PENV,60684,1003.52,266.92,-1.00*3F
$GNVTG,,T,,M,0.274,N,0.507,K,A*3E
$GNGGA,151954.00,3259.18698,N,09643.38568,W,1,12,0.75,208.1,M,-25.3,M,,*75
$PTH,60784*5D
$PENV,60935,1003.53,266.65,-1.00*33
$PENV,61185,1003.53,266.55,-1.00*32
$PENV,61435,1003.53,266.50,-1.00*39
$PENV,61686,1003.53,266.52,-1.00*31
$GNVTG,,T,,M,0.114,N,0.211,K,A*3B
$GNGGA,151955.00,3259.18705,N,09643.38564,W,1,12,0.75,208.4,M,-25.3,M,,*78
$PTH,61785*5D
$PENV,61936,1003.52,266.79,-1.00*3D
$PENV,62187,1003.54,266.39,-1.00*3E
$PENV,62437,1003.54,266.33,-1.00*3A
$PENV,62687,1003.53,266.52,-1.00*33
$GNVTG,,T,,M,0.432,N,0.799,K,A*3F
$GNGGA,151956.00,3259.18715,N,09643.38553,W,1,12,0.75,208.8,M,-25.3,M,,*72
$PTH,62781*5A
$PENV,62938,1003.54,266.28,-1.00*32
$PENV,63188,1003.54,266.28,-1.00*30
$PENV,63439,1003.54,266.32,-1.00*34
$PENV,63689,1003.54,266.38,-1.00*37
$GNVTG,,T,,M,0.121,N,0.224,K,A*3B
$GNGGA,151957.00,3259.18721,N,09643.38550,W,1,12,0.86,208.9,M,-25.3,M,,*7A
$PTH,63785*5F
$PENV,63940,1003.54,266.34,-1.00*31
$PENV,64190,1003.55,266.00,-1.00*35
$PENV,64440,1003.54,266.17,-1.00*3A
$PENV,64691,1003.53,266.46,-1.00*37
$GNVTG,,T,,M,0.023,N,0.043,K,A*3B
$GNGGA,151958.00,3259.18728,N,09643.38543,W,1,12,0.72,209.5,M,-25.3,M,,*78
$PTH,64793*5F
$PENV,64941,1003.52,266.69,-1.00*39
$PENV,65192,1003.52,266.75,-1.00*33
$PENV,65442,1003.54,266.18,-1.00*36
$PENV,65692,1003.55,265.93,-1.00*38
$GNVTG,,T,,M,0.115,N,0.212,K,A*39
$GNGGA,151959.00,3259.18729,N,09643.38537,W,1,12,0.75,209.8,M,-25.3,M,,*71
$PTH,65794*59
$PENV,65943,1003.54,266.14,-1.00*36
$PENV,66193,1003.55,265.95,-1.00*3B
$PENV,66444,1003.54,266.22,-1.00*3A
$PENV,66694,1003.54,266.18,-1.00*3C
$GNVTG,,T,,M,0.130,N,0.241,K,A*38
$GNGGA,152000.00,3259.18729,N,09643.38533,W,1,12,0.98,209.9,M,-25.3,M,,*71
$PTH,66785*5A
$PENV,66945,1003.56,265.79,-1.00*39
$PENV,67195,1003.55,265.93,-1.00*3A
$PENV,67445,1003.54,266.15,-1.00*3E
$PENV,67696,1003.53,266.59,-1.00*3D
$GNVTG,,T,,M,0.173,N,0.320,K,A*39
$GNGGA,152001.00,3259.18731,N,09643.38529,W,1,12,0.87,209.9,M,-25.3,M,,*7C
$PTH,67794*5B
$PENV,67946,1003.54,266.21,-1.00*37
$PENV,68197,1003.54,266.13,-1.00*3D
$PENV,68447,1003.56,265.80,-1.00*3E
$PENV,68698,1003.53,266.52,-1.00*37
$GNVTG,,T,,M,0.199,N,0.369,K,A*30
$GNGGA,152002.00,3259.18743,N,09643.38522,W,1,12,0.72,210.3,M,-25.3,M,,*79
$PTH,68798*58
$PENV,68948,1003.53,266.41,-1.00*37
$PENV,69198,1003.53,266.55,-1.00*36
$PENV,69449,1003.52,266.85,-1.00*33
$PENV,69699,1003.54,266.28,-1.00*3D
$GNVTG,,T,,M,0.164,N,0.304,K,A*39
$GNGGA,152003.00,3259.18755,N,09643.38519,W,1,12,0.93,210.8,M,-25.3,M,,*73
$PTH,69785*55
$PENV,69950,1003.54,266.34,-1.00*3A
$PENV,70200,1003.52,266.68,-1.00*33
$PENV,70451,1003.53,266.45,-1.00*3F
$PENV,70701,1003.53,266.48,-1.00*34
$GNVTG,,T,,M,0.099,N,0.184,K,A*30
$GNGGA,152004.00,3259.18759,N,09643.38520,W,1,12,0.72,211.0,M,-25.3,M,,*74
$PTH,70795*5C
$PENV,70951,1003.53,266.48,-1.00*3F
$PENV,71202,1003.53,266.66,-1.00*3F
$PENV,71452,1003.55,266.07,-1.00*3D
$PENV,71703,1003.55,265.92,-1.00*35
$GNVTG,,T,,M,0.158,N,0.292,K,A*38
$GNGGA,152005.00,3259.18758,N,09643.38519,W,1,12,0.72,211.0,M,-25.3,M,,*7E
$PTH,71798*50
$PENV,71953,1003.54,266.32,-1.00*36
$PENV,72203,1003.52,266.85,-1.00*31
$PENV,72454,1003.53,266.52,-1.00*3E
$PENV,72704,1003.54,266.27,-1.00*3D
$GNVTG,,T,,M,0.040,N,0.073,K,A*3D
$GNGGA,152006.00,3259.18760,N,09643.38518,W,1,12,0.93,211.2,M,-25.3,M,,*7A
$PTH,72810*5C
$PENV,72955,1003.54,266.13,-1.00*30
$PENV,73205,1003.55,265.96,-1.00*30
$PENV,73455,1003.54,266.38,-1.00*35
$PENV,73706,1003.54,266.32,-1.00*3A
$GNVTG,,T,,M,0.307,N,0.568,K,A*32
$GNGGA,152007.00,3259.18756,N,09643.38520,W,1,12,0.72,211.0,M,-25.3,M,,*78
$PTH,73805*59
$PENV,73956,1003.53,266.45,-1.00*36
$PENV,74207,1003.53,266.65,-1.00*3C
$PENV,74457,1003.53,266.57,-1.00*3E
$PENV,74708,1003.54,266.30,-1.00*31
$GNVTG,,T,,M,0.135,N,0.251,K,A*3C
$GNGGA,152008.00,3259.18757,N,09643.38525,W,1,12,0.75,210.9,M,-25.3,M,,*7C
$PTH,74798*55
$PENV,74958,1003.53,266.43,-1.00*39
$PENV,75208,1003.53,266.58,-1.00*3C
$PENV,75459,1003.53,266.54,-1.00*32
$PENV,75709,1003.55,265.99,-1.00*30
$GNVTG,,T,,M,0.202,N,0.375,K,A*3C
$GNGGA,152009.00,3259.18759,N,09643.38525,W,1,12,0.89,211.0,M,-25.3,M,,*78
$PTH,75795*59
$PENV,75960,1003.53,266.53,-1.00*32
$PENV,76210,1003.53,266.46,-1.00*39
$PENV,76460,1003.55,266.12,-1.00*3F
$PENV,76711,1003.54,266.29,-1.00*33
$GNVTG,,T,,M,0.440,N,0.815,K,A*31
$GNGGA,152010.00,3259.18752,N,09643.38522,W,1,12,0.78,210.9,M,-25.3,M,,*7A
$PTH,76797*58
$PENV,76961,1003.55,266.00,-1.00*30
$PENV,77212,1003.54,266.34,-1.00*38
$PENV,77462,1003.54,266.17,-1.00*38
$PENV,77713,1003.53,266.58,-1.00*31
$GNVTG,,T,,M,0.110,N,0.204,K,A*3B
$GNGGA,152011.00,3259.18748,N,09643.38517,W,1,12,0.78,210.9,M,-25.3,M,,*76
$PTH,77796*58
$PENV,77963,1003.52,266.76,-1.00*35
$PENV,78213,1003.53,266.58,-1.00*3B
$PENV,78464,1003.53,266.42,-1.00*36
$PENV,78714,1003.54,266.31,-1.00*31
$GNVTG,,T,,M,0.423,N,0.784,K,A*33
$GNGGA,152012.00,3259.18756,N,09643.38521,W,1,12,1.00,210.8,M,-25.3,M,,*70
$PTH,78792*53
$PENV,78965,1003.54,266.22,-1.00*3B
$PENV,79215,1003.54,266.36,-1.00*33
$PENV,79465,1003.53,266.45,-1.00*31
$PENV,79716,1003.54,266.38,-1.00*3B
$GNVTG,,T,,M,0.119,N,0.220,K,A*34
$GNGGA,152013.00,3259.18755,N,09643.38524,W,1,12,0.79,210.3,M,-25.3,M,,*73
$PTH,79793*53
$PENV,79966,1003.52,266.73,-1.00*3B
$PENV,80217,1003.55,265.94,-1.00*3D
$PENV,80467,1003.54,266.25,-1.00*34
$PENV,80718,1003.55,266.09,-1.00*30
$GNVTG,,T,,M,0.220,N,0.407,K,A*3E
$GNGGA,152014.00,3259.18750,N,09643.38526,W,1,12,0.80,210.1,M,-25.3,M,,*77
$PTH,80793*55
$PENV,80968,1003.54,266.38,-1.00*3A
$PENV,81218,1003.55,266.12,-1.00*3E
$PENV,81469,1003.54,266.30,-1.00*3F
$PENV,81719,1003.54,266.26,-1.00*3C
$GNVTG,,T,,M,0.319,N,0.590,K,A*3A
$GNGGA,152015.00,3259.18749,N,09643.38526,W,1,12,0.87,209.9,M,-25.3,M,,*79
$PTH,81788*5E
$PENV,81970,1003.53,266.46,-1.00*3C
$PENV,82220,1003.53,266.55,-1.00*33
$PENV,82471,1003.53,266.62,-1.00*35
$PENV,82721,1003.54,266.35,-1.00*36
$GNVTG,,T,,M,0.162,N,0.300,K,A*3B
$GNGGA,152016.00,3259.18753,N,09643.38522,W,1,12,0.84,209.8,M,-25.3,M,,*77
$PTH,82793*57
$PENV,82971,1003.54,266.26,-1.00*3F
$PENV,83222,1003.54,266.31,-1.00*35
$PENV,83472,1003.53,266.42,-1.00*35
$PENV,83723,1003.54,266.20,-1.00*31
$GNVTG,,T,,M,0.195,N,0.362,K,A*37
$GNGGA,152017.00,3259.18750,N,09643.38522,W,1,12,0.73,209.4,M,-25.3,M,,*71
$PTH,83793*56
$PENV,83973,1003.53,266.65,-1.00*3C
$PENV,84223,1003.54,266.24,-1.00*37
$PENV,84474,1003.55,265.87,-1.00*38
$PENV,84724,1003.54,266.15,-1.00*37
$GNVTG,,T,,M,0.076,N,0.141,K,A*38
$GNGGA,152018.00,3259.18748,N,09643.38521,W,1,12,0.84,209.4,M,-25.3,M,,*7C
$PTH,84781*52
$PENV,84975,1003.55,265.92,-1.00*30
$PENV,85225,1003.54,266.37,-1.00*32
$PENV,85475,1003.54,266.24,-1.00*33
$PENV,85726,1003.55,266.00,-1.00*31
$GNVTG,,T,,M,0.244,N,0.452,K,A*3C
$GNGGA,152019.00,3259.18754,N,09643.38516,W,1,12,0.73,209.8,M,-25.3,M,,*70
$PTH,85785*57
$PENV,85976,1003.55,266.12,-1.00*39
$PENV,86227,1003.55,266.01,-1.00*37
$PENV,86477,1003.53,266.57,-1.00*31
$PENV,86727,1003.55,266.08,-1.00*3B
$GNVTG,,T,,M,0.101,N,0.187,K,A*33
$GNGGA,152020.00,3259.18755,N,09643.38512,W,1,12,0.76,209.9,M,-25.3,M,,*7B
$PTH,86780*51
$PENV,86978,1003.53,266.54,-1.00*30
$PENV,87228,1003.56,265.76,-1.00*39
$PENV,87479,1003.55,265.94,-1.00*34
$PENV,87729,1003.55,266.08,-1.00*34
$GNVTG,,T,,M,0.102,N,0.189,K,A*3E
$GNGGA,152021.00,3259.18755,N,09643.38512,W,1,12,0.81,209.9,M,-25.3,M,,*72
$PTH,87788*58
$PENV,87980,1003.55,265.96,-1.00*3D
$PENV,88230,1003.55,266.09,-1.00*37
$PENV,88480,1003.55,265.96,-1.00*3F
$PENV,88731,1003.56,265.81,-1.00*33
$GNVTG,,T,,M,0.123,N,0.228,K,A*35
$GNGGA,152022.00,3259.18757,N,09643.38512,W,1,12,0.70,210.0,M,-25.3,M,,*7C
$PTH,88791*5F
$PENV,88981,1003.55,266.04,-1.00*3B
$PENV,89232,1003.55,266.05,-1.00*38
$PENV,89482,1003.53,266.42,-1.00*30
$PENV,89733,1003.55,266.00,-1.00*39
$GNVTG,,T,,M,0.405,N,0.749,K,A*36
$GNGGA,152023.00,3259.18761,N,09643.38514,W,1,12,0.76,209.9,M,-25.3,M,,*79
$PTH,89796*59
$PENV,89983,1003.54,266.25,-1.00*3A
$PENV,90233,1003.56,265.84,-1.00*38
$PENV,90484,1003.56,265.78,-1.00*31
$PENV,90734,1003.55,265.94,-1.00*38
$GNVTG,,T,,M,0.308,N,0.570,K,A*34
$GNGGA,152024.00,3259.18769,N,09643.38510,W,1,12,0.76,210.2,M,-25.3,M,,*71
$PTH,90791*56
$PENV,90985,1003.56,265.71,-1.00*34
$PENV,91235,1003.54,266.19,-1.00*3A
$PENV,91485,1003.56,265.81,-1.00*37
$PENV,91736,1003.56,265.61,-1.00*32
$GNVTG,,T,,M,0.123,N,0.227,K,A*3A
$GNGGA,152025.00,3259.18772,N,09643.38505,W,1,12,0.70,210.4,M,-25.3,M,,*7E
$PTH,91794*52
$PENV,91986,1003.55,265.87,-1.00*3C
$PENV,92237,1003.55,266.09,-1.00*3B
$PENV,92487,1003.55,266.08,-1.00*37
$PENV,92738,1003.57,265.56,-1.00*3A
$GNVTG,,T,,M,0.259,N,0.480,K,A*3F
$GNGGA,152026.00,3259.18769,N,09643.38508,W,1,12,0.70,210.4,M,-25.3,M,,*7A
$PTH,92786*52
$PENV,92988,1003.56,265.84,-1.00*31
$PENV,93238,1003.55,265.95,-1.00*33
$PENV,93489,1003.56,265.82,-1.00*3A
$PENV,93739,1003.57,265.47,-1.00*3A
$GNVTG,,T,,M,0.199,N,0.369,K,A*30
$GNGGA,152027.00,3259.18770,N,09643.38515,W,1,12,0.81,210.2,M,-25.3,M,,*77
$PTH,93790*54
$PENV,93990,1003.56,265.62,-1.00*31
$PENV,94240,1003.57,265.39,-1.00*3F
$PENV,94490,1003.56,265.83,-1.00*34
$PENV,94741,1003.56,265.78,-1.00*3F
$GNVTG,,T,,M,0.148,N,0.274,K,A*31
$GNGGA,152028.00,3259.18771,N,09643.38514,W,1,12,0.72,210.3,M,-25.3,M,,*75
$PTH,94790*53
$PENV,94991,1003.55,265.86,-1.00*3E
$PENV,95242,1003.57,265.35,-1.00*30
$PENV,95492,1003.56,265.76,-1.00*3D
$PENV,95743,1003.57,265.58,-1.00*3F
$GNVTG,,T,,M,0.250,N,0.463,K,A*3B
$GNGGA,152029.00,3259.18761,N,09643.38510,W,1,12,0.70,210.0,M,-25.3,M,,*70
$PTH,95792*50
$PENV,95993,1003.56,265.59,-1.00*3C
$PENV,96244,1003.55,265.90,-1.00*38
$PENV,96494,1003.57,265.54,-1.00*39
$PENV,96744,1003.56,265.74,-1.00*34
$GNVTG,,T,,M,0.202,N,0.374,K,A*3D
$GNGGA,152030.00,3259.18756,N,09643.38507,W,1,12,0.74,210.0,M,-25.3,M,,*7E
$PTH,96793*52
$PENV,96995,1003.56,265.71,-1.00*33
$PENV,97245,1003.56,265.83,-1.00*39
$PENV,97496,1003.56,265.68,-1.00*34
$PENV,97746,1003.56,265.75,-1.00*36
$GNVTG,,T,,M,0.148,N,0.275,K,A*30
$GNGGA,152031.00,3259.18755,N,09643.38506,W,1,12,0.70,210.0,M,-25.3,M,,*79
$PTH,97797*57
$PENV,97996,1003.56,265.63,-1.00*32
$PENV,98247,1003.55,265.98,-1.00*3D
$PENV,98497,1003.56,265.69,-1.00*3B
$PENV,98748,1003.56,265.65,-1.00*36
$GNVTG,,T,,M,0.297,N,0.551,K,A*30
$GNGGA,152032.00,3259.18762,N,09643.38503,W,1,12,0.70,210.0,M,-25.3,M,,*7B
$PTH,98791*5E
$PENV,98998,1003.56,265.67,-1.00*37
$PENV,99248,1003.57,265.46,-1.00*32
$PENV,99499,1003.56,265.61,-1.00*3C
$PENV,99749,1003.56,265.66,-1.00*35
$GNVTG,,T,,M,0.442,N,0.819,K,A*3F
$GNGGA,152033.00,3259.18772,N,09643.38492,W,1,12,0.84,210.3,M,-25.3,M,,*7A
$PTH,99796*58
$PENV,100000,1003.55,265.92,-1.00*06
$PENV,100250,1003.57,265.50,-1.00*0D
$PENV,100501,1003.56,265.80,-1.00*02
$PENV,100751,1003.56,265.82,-1.00*07
$GNVTG,,T,,M,0.215,N,0.397,K,A*36
$GNGGA,152034.00,3259.18776,N,09643.38486,W,1,12,0.81,210.4,M,-25.3,M,,*7E
$PTH,100790*6F
$PENV,101001,1003.56,265.67,-1.00*0F
$PENV,101252,1003.55,265.89,-1.00*08
$PENV,101502,1003.56,265.85,-1.00*05
$PENV,101753,1003.56,265.61,-1.00*09
$GNVTG,,T,,M,0.382,N,0.707,K,A*34
$GNGGA,152035.00,3259.18765,N,09643.38492,W,1,12,0.81,210.1,M,-25.3,M,,*7D
$PTH,101793*6D
$PENV,102003,1003.56,265.61,-1.00*08
$PENV,102254,1003.55,265.96,-1.00*03
$PENV,102504,1003.56,265.81,-1.00*04
$PENV,102754,1003.55,266.06,-1.00*0C
$GNVTG,,T,,M,0.233,N,0.432,K,A*3A
$GNGGA,152036.00,3259.18744,N,09643.38500,W,1,12,0.81,209.5,M,-25.3,M,,*7B
$PTH,102796*6B
$PENV,103005,1003.55,266.03,-1.00*0B
$PENV,103255,1003.55,266.03,-1.00*0C
$PENV,103506,1003.56,265.63,-1.00*0B
$PENV,103756,1003.56,265.84,-1.00*05
$GNVTG,,T,,M,0.174,N,0.322,K,A*3C
$GNGGA,152037.00,3259.18729,N,09643.38504,W,1,12,0.81,209.1,M,-25.3,M,,*71
$PTH,103802*68
$PENV,104006,1003.56,265.71,-1.00*0A
$PENV,104257,1003.56,265.64,-1.00*08
$PENV,104507,1003.56,265.83,-1.00*03
$PENV,104758,1003.56,265.61,-1.00*07
$GNVTG,,T,,M,0.211,N,0.391,K,A*34
$GNGGA,152038.00,3259.18724,N,09643.38508,W,1,12,0.73,208.8,M,-25.3,M,,*7A
$PTH,104810*6C
$PENV,105008,1003.57,265.35,-1.00*04
$PENV,105259,1003.57,265.47,-1.00*07
$PENV,105509,1003.57,265.45,-1.00*07
$PENV,105759,1003.56,265.69,-1.00*0F
$GNVTG,186.92,T,,M,0.982,N,1.818,K,A*24
$GNGGA,152039.00,3259.18708,N,09643.38511,W,1,12,0.84,208.6,M,-25.3,M,,*7B
$PTH,105783*68
$PENV,106010,1003.58,265.13,-1.00*05
$PENV,106260,1003.57,265.56,-1.00*0E
$PENV,106511,1003.56,265.63,-1.00*08
$PENV,106761,1003.58,265.25,-1.00*01
$GNVTG,,T,,M,0.263,N,0.486,K,A*30
$GNGGA,152040.00,3259.18693,N,09643.38509,W,1,12,0.77,208.8,M,-25.3,M,,*7D
$PTH,106795*6C
$PENV,107011,1003.57,265.46,-1.00*0A
$PENV,107262,1003.57,265.56,-1.00*0D
$PENV,107512,1003.56,265.65,-1.00*0C
$PENV,107763,1003.57,265.42,-1.00*0C
$GNVTG,,T,,M,0.455,N,0.843,K,A*36
$GNGGA,152041.00,3259.18688,N,09643.38502,W,1,12,0.77,208.8,M,-25.3,M,,*7D
$PTH,107787*6E
$PENV,108013,1003.56,265.74,-1.00*07
$PENV,108264,1003.56,265.65,-1.00*05
$PENV,108514,1003.57,265.35,-1.00*01
$PENV,108764,1003.56,265.81,-1.00*0A
$GNVTG,,T,,M,0.384,N,0.712,K,A*36
$GNGGA,152042.00,3259.18683,N,09643.38496,W,1,12,0.70,208.6,M,-25.3,M,,*70
$PTH,108793*64
$PENV,109015,1003.56,265.60,-1.00*05
$PENV,109265,1003.56,265.64,-1.00*04
$PENV,109516,1003.57,265.51,-1.00*00
$PENV,109766,1003.56,265.59,-1.00*0C
$GNVTG,,T,,M,0.339,N,0.629,K,A*39
$GNGGA,152043.00,3259.18697,N,09643.38485,W,1,12,0.70,208.5,M,-25.3,M,,*75
$PTH,109792*64
$PENV,110017,1003.56,265.66,-1.00*09
$PENV,110267,1003.56,265.61,-1.00*0B
$PENV,110517,1003.55,266.11,-1.00*0C
$PENV,110768,1003.56,265.67,-1.00*07
$GNVTG,,T,,M,0.664,N,1.229,K,A*31
$GNGGA,152044.00,3259.18707,N,09643.38478,W,1,12,0.70,208.6,M,-25.3,M,,*7B
$PTH,110782*6D
$PENV,111018,1003.55,265.88,-1.00*04
$PENV,111269,1003.55,266.10,-1.00*02
$PENV,111519,1003.56,265.77,-1.00*03
$PENV,111770,1003.57,265.42,-1.00*09
$GNVTG,,T,,M,0.639,N,1.184,K,A*3D
$GNGGA,152045.00,3259.18712,N,09643.38476,W,1,12,0.70,209.1,M,-25.3,M,,*76
$PTH,111783*6D
$PENV,112020,1003.56,265.74,-1.00*0C
$PENV,112270,1003.55,265.99,-1.00*0B
$PENV,112521,1003.55,266.08,-1.00*03
$PENV,112771,1003.56,265.85,-1.00*01
$GNVTG,,T,,M,0.241,N,0.447,K,A*3D
$GNGGA,152046.00,3259.18710,N,09643.38489,W,1,12,0.72,209.5,M,-25.3,M,,*71
$PTH,112789*64
$PENV,113022,1003.57,265.40,-1.00*09
$PENV,113272,1003.56,265.74,-1.00*08
$PENV,113522,1003.57,265.57,-1.00*0A
$PENV,113773,1003.56,265.67,-1.00*0E
$GNVTG,,T,,M,0.074,N,0.137,K,A*3B
$GNGGA,152047.00,3259.18728,N,09643.38476,W,1,12,0.70,209.4,M,-25.3,M,,*78
$PTH,113791*6C
$PENV,114023,1003.58,265.28,-1.00*0E
$PENV,114274,1003.57,265.50,-1.00*0E
$PENV,114524,1003.57,265.46,-1.00*0B
$PENV,114775,1003.56,265.58,-1.00*03
$GNVTG,,T,,M,0.878,N,1.625,K,A*3A
$GNGGA,152048.00,3259.18742,N,09643.38465,W,1,12,0.81,209.0,M,-25.3,M,,*73
$PTH,114792*68
$PENV,115025,1003.56,265.61,-1.00*0A
$PENV,115275,1003.57,265.33,-1.00*0B
$PENV,115526,1003.58,265.09,-1.00*0C
$PENV,115776,1003.55,265.94,-1.00*02
$GNVTG,,T,,M,0.195,N,0.361,K,A*34
$GNGGA,152049.00,3259.18758,N,09643.38462,W,1,12,0.70,209.2,M,-25.3,M,,*72
$PTH,115792*69
$PENV,116027,1003.57,265.48,-1.00*01
$PENV,116277,1003.57,265.57,-1.00*08
$PENV,116528,1003.56,265.64,-1.00*04
$PENV,116778,1003.56,265.84,-1.00*0D
$GNVTG,,T,,M,0.595,N,1.103,K,A*37
$GNGGA,152050.00,3259.18780,N,09643.38446,W,1,12,0.70,209.1,M,-25.3,M,,*7A
$PTH,116794*6C
$PENV,117028,1003.57,265.54,-1.00*02
$PENV,117279,1003.57,265.50,-1.00*00
$PENV,117529,1003.54,266.20,-1.00*05
$PENV,117780,1003.56,265.62,-1.00*03
$GNVTG,,T,,M,0.157,N,0.290,K,A*35
$GNGGA,152051.00,3259.18800,N,09643.38439,W,1,12,0.72,209.3,M,-25.3,M,,*74
$PTH,117788*60
$PENV,118030,1003.56,265.67,-1.00*05
$PENV,118281,1003.56,265.68,-1.00*02
$PENV,118531,1003.56,265.73,-1.00*04
$PENV,118781,1003.56,265.77,-1.00*09
$GNVTG,,T,,M,0.399,N,0.739,K,A*33
$GNGGA,152052.00,3259.18811,N,09643.38429,W,1,12,0.72,208.9,M,-25.3,M,,*7D
$PTH,118794*62
$PENV,119032,1003.54,266.20,-1.00*04
$PENV,119282,1003.56,265.75,-1.00*0C
$PENV,119533,1003.56,265.74,-1.00*00
$PENV,119783,1003.56,265.68,-1.00*04
$GNVTG,,T,,M,0.163,N,0.302,K,A*38
$GNGGA,152053.00,3259.18825,N,09643.38416,W,1,12,0.70,208.8,M,-25.3,M,,*74
$PTH,119790*67
$PENV,120033,1003.55,266.04,-1.00*08
$PENV,120284,1003.55,265.93,-1.00*0B
$PENV,120534,1003.56,265.82,-1.00*04
$GNVTG,,T,,M,0.259,N,0.479,K,A*39
$GNGGA,152054.00,3259.18846,N,09643.38386,W,1,12,0.68,208.4,M,-25.3,M,,*7D
$PTH,120784*68
$PENV,120785,1003.55,265.87,-1.00*0A
$PENV,121035,1003.55,265.89,-1.00*09
$PENV,121286,1003.54,266.19,-1.00*08
$PENV,121536,1003.56,265.79,-1.00*03
$PENV,121786,1003.56,265.70,-1.00*03
$GNVTG,,T,,M,0.068,N,0.126,K,A*36
$GNGGA,152055.00,3259.18871,N,09643.38361,W,1,12,0.70,208.5,M,-25.3,M,,*79
$PTH,121791*6D
$PENV,122037,1003.55,265.95,-1.00*05
$PENV,122287,1003.57,265.34,-1.00*05
$PENV,122538,1003.56,265.69,-1.00*0F
$PENV,122788,1003.56,265.67,-1.00*08
$GNVTG,,T,,M,0.291,N,0.539,K,A*38
$GNGGA,152056.00,3259.18898,N,09643.38334,W,1,12,0.72,208.4,M,-25.3,M,,*7E
$PTH,122795*6A
$PENV,123038,1003.57,265.53,-1.00*03
$PENV,123289,1003.55,265.94,-1.00*02
$PENV,123539,1003.57,265.41,-1.00*04
$GNVTG,,T,,M,0.105,N,0.194,K,A*35
$GNGGA,152057.00,3259.18923,N,09643.38313,W,1,12,0.76,208.7,M,-25.3,M,,*7C
$PTH,123786*69
$PENV,123790,1003.57,265.40,-1.00*04
$PENV,124040,1003.56,265.61,-1.00*0B
$PENV,124291,1003.57,265.49,-1.00*0E
$PENV,124541,1003.57,265.50,-1.00*0C
$PENV,124791,1003.57,265.46,-1.00*04
$GNVTG,,T,,M,0.150,N,0.278,K,A*34
$GNGGA,152058.00,3259.18937,N,09643.38299,W,1,12,0.70,208.9,M,-25.3,M,,*7D
$PTH,124793*6A
$PENV,125042,1003.57,265.48,-1.00*02
$PENV,125292,1003.57,265.48,-1.00*0D
$PENV,125543,1003.56,265.68,-1.00*05
$GNVTG,,T,,M,0.134,N,0.248,K,A*35
$GNGGA,152059.00,3259.18947,N,09643.38288,W,1,12,0.70,209.3,M,-25.3,M,,*70
$PTH,125791*69
$PENV,125793,1003.56,265.65,-1.00*07
$PENV,126044,1003.57,265.48,-1.00*07
$PENV,126294,1003.58,265.29,-1.00*00
$PENV,126544,1003.57,265.51,-1.00*0A
$GNVTG,,T,,M,0.289,N,0.536,K,A*3E
$GNGGA,152100.00,3259.18952,N,09643.38280,W,1,12,0.76,209.4,M,-25.3,M,,*70
$PTH,126786*6C
$PENV,126795,1003.57,265.43,-1.00*07
$PENV,127045,1003.57,265.54,-1.00*0A
$PENV,127296,1003.57,265.39,-1.00*0D
$PENV,127546,1003.57,265.38,-1.00*06
$GNVTG,,T,,M,0.149,N,0.277,K,A*33
$GNGGA,152101.00,3259.18962,N,09643.38264,W,1,12,0.72,209.3,M,-25.3,M,,*7B
$PTH,127794*6E
$PENV,127797,1003.57,265.39,-1.00*09
$PENV,128047,1003.57,265.39,-1.00*0C
$PENV,128297,1003.58,265.27,-1.00*03
$PENV,128548,1003.58,265.28,-1.00*09
$GNVTG,,T,,M,0.423,N,0.784,K,A*33
$GNGGA,152102.00,3259.18965,N,09643.38258,W,1,12,0.74,209.3,M,-25.3,M,,*76
$PTH,128788*6C
$PENV,128798,1003.57,265.57,-1.00*01
$PENV,129049,1003.56,265.61,-1.00*0F
$PENV,129299,1003.57,265.52,-1.00*01
$PENV,129549,1003.57,265.36,-1.00*09
$GNVTG,86.92,T,,M,1.213,N,2.246,K,A*15
$GNGGA,152103.00,3259.18981,N,09643.38241,W,1,12,0.74,209.3,M,-25.3,M,,*75
$PTH,129791*65
$PENV,129800,1003.58,265.15,-1.00*07
$PENV,130050,1003.57,265.42,-1.00*0F
$PENV,130301,1003.57,265.52,-1.00*09
$PENV,130551,1003.59,264.76,-1.00*03
$GNVTG,,T,,M,0.753,N,1.395,K,A*32
$GNGGA,152104.00,3259.18999,N,09643.38227,W,1,12,0.74,209.2,M,-25.3,M,,*7A
$PTH,130784*69
$PENV,130802,1003.58,265.27,-1.00*0C
$PENV,131052,1003.57,265.58,-1.00*07
$PENV,131302,1003.60,264.70,-1.00*0E
$PENV,131553,1003.57,265.49,-1.00*03
$GNVTG,,T,,M,0.435,N,0.806,K,A*31
$GNGGA,152105.00,3259.19004,N,09643.38226,W,1,12,0.74,209.4,M,-25.3,M,,*70
$PTH,131788*64
$PENV,131803,1003.57,265.58,-1.00*0B
$PENV,132054,1003.58,265.13,-1.00*02
$PENV,132304,1003.59,264.99,-1.00*06
$PENV,132554,1003.59,264.80,-1.00*0D
$GNVTG,,T,,M,0.343,N,0.635,K,A*39
$GNGGA,152106.00,3259.19010,N,09643.38223,W,1,12,0.74,209.3,M,-25.3,M,,*74
$PTH,132780*6F
$PENV,132805,1003.57,265.34,-1.00*04
$PENV,133055,1003.58,265.23,-1.00*01
$PENV,133306,1003.58,265.15,-1.00*01
$PENV,133556,1003.56,265.69,-1.00*07
$GNVTG,,T,,M,0.187,N,0.346,K,A*32
$GNGGA,152107.00,3259.19014,N,09643.38217,W,1,12,0.74,209.2,M,-25.3,M,,*77
$PTH,133794*6B
$PENV,133807,1003.59,265.02,-1.00*0C
$PENV,134057,1003.59,264.89,-1.00*04
$PENV,134308,1003.58,265.21,-1.00*0F
$PENV,134558,1003.58,265.07,-1.00*08
$GNVTG,,T,,M,0.527,N,0.977,K,A*34
$GNGGA,152108.00,3259.19025,N,09643.38210,W,1,12,0.74,209.4,M,-25.3,M,,*7B
$PTH,134782*6B
$PENV,134808,1003.59,264.98,-1.00*06
$PENV,135059,1003.58,265.12,-1.00*09
$PENV,135309,1003.59,264.91,-1.00*04
$PENV,135560,1003.59,264.95,-1.00*09
$GNVTG,,T,,M,0.661,N,1.224,K,A*39
$GNGGA,152109.00,3259.19034,N,09643.38211,W,1,12,0.82,209.6,M,-25.3,M,,*70
$PTH,135785*6D
$PENV,135810,1003.60,264.62,-1.00*01
$PENV,136060,1003.59,264.78,-1.00*0C
$PENV,136311,1003.60,264.64,-1.00*0E
$PENV,136561,1003.58,265.09,-1.00*0E
$GNVTG,,T,,M,0.570,N,1.056,K,A*3D
$GNGGA,152110.00,3259.19046,N,09643.38207,W,1,12,0.70,210.0,M,-25.3,M,,*79
$PTH,136795*6F
$PENV,136812,1003.58,265.03,-1.00*0D
$PENV,137062,1003.60,264.73,-1.00*0E
$PENV,137313,1003.62,264.13,-1.00*0F
$PENV,137563,1003.61,264.31,-1.00*0D
$GNVTG,,T,,M,0.211,N,0.391,K,A*34
$GNGGA,152111.00,3259.19048,N,09643.38199,W,1,12,0.70,210.0,M,-25.3,M,,*72
$PTH,137800*6D
$PENV,137813,1003.59,264.96,-1.00*01
$PENV,138064,1003.59,264.93,-1.00*03
$PENV,138314,1003.61,264.42,-1.00*00
$PENV,138565,1003.60,264.72,-1.00*02
$GNVTG,,T,,M,0.287,N,0.532,K,A*34
$GNGGA,152112.00,3259.19044,N,09643.38197,W,1,12,0.71,210.1,M,-25.3,M,,*73
$PTH,138799*6D
$PENV,138815,1003.61,264.46,-1.00*0E
$PENV,139066,1003.59,264.91,-1.00*02
$PENV,139316,1003.59,264.80,-1.00*06
$PENV,139566,1003.58,265.09,-1.00*06
$GNVTG,,T,,M,0.435,N,0.805,K,A*32
$GNGGA,152113.00,3259.19036,N,09643.38200,W,1,12,0.70,209.9,M,-25.3,M,,*7B
$PTH,139788*6C
$PENV,139817,1003.59,264.76,-1.00*05
$PENV,140067,1003.60,264.58,-1.00*02
$PENV,140318,1003.59,264.76,-1.00*0F
$PENV,140568,1003.59,264.94,-1.00*02
$GNVTG,,T,,M,0.232,N,0.430,K,A*39
$GNGGA,152114.00,3259.19032,N,09643.38212,W,1,12,0.76,210.4,M,-25.3,M,,*78
$PTH,140794*6F
$PENV,140818,1003.60,264.57,-1.00*0D
$PENV,141069,1003.59,264.76,-1.00*0B
$PENV,141319,1003.61,264.34,-1.00*02
$PENV,141570,1003.61,264.26,-1.00*08
$GNVTG,,T,,M,0.666,N,1.234,K,A*3F
$GNGGA,152115.00,3259.19018,N,09643.38226,W,1,12,0.72,211.0,M,-25.3,M,,*77
$PTH,141792*68
$PENV,141820,1003.60,264.67,-1.00*04
$PENV,142071,1003.60,264.49,-1.00*07
$PENV,142321,1003.60,264.51,-1.00*08
$PENV,142571,1003.62,264.15,-1.00*09
$GNVTG,,T,,M,0.227,N,0.421,K,A*3D
$GNGGA,152116.00,3259.18997,N,09643.38239,W,1,12,0.70,211.4,M,-25.3,M,,*73
$PTH,142794*6D
$PENV,142822,1003.60,264.61,-1.00*03
$PENV,143072,1003.60,264.60,-1.00*0E
$PENV,143323,1003.61,264.41,-1.00*0B
$PENV,143573,1003.61,264.23,-1.00*0C
$GNVTG,,T,,M,0.340,N,0.630,K,A*3F
$GNGGA,152117.00,3259.18984,N,09643.38250,W,1,12,0.70,211.7,M,-25.3,M,,*7C
$PTH,143787*6E
$PENV,143823,1003.61,264.21,-1.00*06
$PENV,144074,1003.61,264.47,-1.00*0B
$PENV,144324,1003.61,264.35,-1.00*08
$PENV,144575,1003.61,264.33,-1.00*0C
$GNVTG,,T,,M,0.319,N,0.590,K,A*3A
$GNGGA,152118.00,3259.18972,N,09643.38253,W,1,12,0.74,211.8,M,-25.3,M,,*72
$PTH,144787*69
$PENV,144825,1003.62,264.13,-1.00*05
$PENV,145076,1003.61,264.39,-1.00*01
$PENV,145326,1003.60,264.55,-1.00*0C
$PENV,145576,1003.60,264.57,-1.00*0D
$GNVTG,,T,,M,0.448,N,0.829,K,A*36
$GNGGA,152119.00,3259.18969,N,09643.38252,W,1,12,0.73,211.6,M,-25.3,M,,*71
$PTH,145790*6E
$PENV,145827,1003.61,264.42,-1.00*01
$PENV,146077,1003.60,264.61,-1.00*0F
$PENV,146328,1003.61,264.39,-1.00*0A
$PENV,146578,1003.61,264.41,-1.00*06
$GNVTG,,T,,M,0.236,N,0.437,K,A*3A
$GNGGA,152120.00,3259.18965,N,09643.38264,W,1,12,0.73,211.2,M,-25.3,M,,*76
$PTH,146784*68
$PENV,146829,1003.61,264.25,-1.00*0D
$PENV,147079,1003.60,264.55,-1.00*07
$PENV,147329,1003.61,264.34,-1.00*07
$PENV,147580,1003.61,264.27,-1.00*00
$GNVTG,,T,,M,0.187,N,0.347,K,A*33
$GNGGA,152121.00,3259.18960,N,09643.38281,W,1,12,0.77,210.8,M,-25.3,M,,*76
$PTH,147789*64
$PENV,147830,1003.60,264.50,-1.00*07
$PENV,148081,1003.59,264.78,-1.00*0A
$PENV,148331,1003.61,264.37,-1.00*02
$PENV,148581,1003.60,264.57,-1.00*08
$GNVTG,,T,,M,0.304,N,0.563,K,A*3A
$GNGGA,152122.00,3259.18955,N,09643.38297,W,1,12,0.70,210.6,M,-25.3,M,,*7D
$PTH,148782*60
$PENV,148832,1003.59,264.86,-1.00*0B
$PENV,149082,1003.61,264.45,-1.00*0D
$PENV,149333,1003.59,264.83,-1.00*05
$PENV,149583,1003.60,264.55,-1.00*09
$GNVTG,,T,,M,0.319,N,0.590,K,A*3A
$GNGGA,152123.00,3259.18942,N,09643.38312,W,1,12,0.73,210.2,M,-25.3,M,,*71
$PTH,149790*62
$PENV,149834,1003.60,264.52,-1.00*0F
$PENV,150084,1003.60,264.50,-1.00*06
$PENV,150334,1003.60,264.48,-1.00*07
$PENV,150585,1003.60,264.62,-1.00*03
$GNVTG,,T,,M,0.582,N,1.078,K,A*3C
$GNGGA,152124.00,3259.18926,N,09643.38331,W,1,12,0.74,210.3,M,-25.3,M,,*73
$PTH,150789*62
$PENV,150835,1003.60,264.70,-1.00*06
$PENV,151086,1003.59,264.94,-1.00*07
$PENV,151336,1003.61,264.47,-1.00*0A
$PENV,151586,1003.61,264.44,-1.00*04
$GNVTG,,T,,M,0.264,N,0.488,K,A*39
$GNGGA,152125.00,3259.18910,N,09643.38344,W,1,12,0.74,210.4,M,-25.3,M,,*72
$PTH,151789*63
$PENV,151837,1003.60,264.53,-1.00*04
$PENV,152087,1003.59,264.87,-1.00*07
$PENV,152338,1003.60,264.58,-1.00*08
$PENV,152588,1003.60,264.57,-1.00*0A
$GNVTG,,T,,M,0.351,N,0.650,K,A*39
$GNGGA,152126.00,3259.18909,N,09643.38348,W,1,12,0.71,210.5,M,-25.3,M,,*71
$PTH,152793*6B
$PENV,152839,1003.60,264.49,-1.00*02
$PENV,153089,1003.60,264.70,-1.00*0A
$PENV,153339,1003.62,264.17,-1.00*01
$PENV,153590,1003.61,264.36,-1.00*04
$GNVTG,,T,,M,0.259,N,0.480,K,A*3F
$GNGGA,152127.00,3259.18909,N,09643.38355,W,1,12,0.74,211.0,M,-25.3,M,,*7D
$PTH,153784*6C
$PENV,153840,1003.61,264.23,-1.00*00
$PENV,154091,1003.62,264.18,-1.00*08
$PENV,154341,1003.60,264.55,-1.00*0D
$PENV,154591,1003.61,264.36,-1.00*02
$GNVTG,,T,,M,0.226,N,0.419,K,A*37
$GNGGA,152128.00,3259.18912,N,09643.38363,W,1,12,0.79,211.2,M,-25.3,M,,*72
$PTH,154789*66
$PENV,154842,1003.62,264.19,-1.00*0F
$PENV,155092,1003.62,264.10,-1.00*02
$PENV,155343,1003.60,264.57,-1.00*0C
$PENV,155593,1003.60,264.52,-1.00*02
$GNVTG,,T,,M,0.187,N,0.346,K,A*32
$GNGGA,152129.00,3259.18901,N,09643.38384,W,1,12,0.77,210.9,M,-25.3,M,,*7C
$PTH,155792*6D
$PENV,155843,1003.61,264.21,-1.00*07
$PENV,156094,1003.62,264.05,-1.00*03
$PENV,156344,1003.62,264.09,-1.00*01
$PENV,156595,1003.60,264.63,-1.00*05
$GNVTG,,T,,M,0.158,N,0.293,K,A*39
$GNGGA,152130.00,3259.18892,N,09643.38400,W,1,12,0.76,210.6,M,-25.3,M,,*7A
$PTH,156791*6D
$PENV,156845,1003.62,264.19,-1.00*0A
$PENV,157096,1003.62,264.13,-1.00*07
$PENV,157346,1003.62,264.20,-1.00*09
$PENV,157596,1003.60,264.50,-1.00*07
$GNVTG,,T,,M,0.088,N,0.162,K,A*38
$GNGGA,152131.00,3259.18888,N,09643.38409,W,1,12,0.77,210.4,M,-25.3,M,,*7A
$PTH,157779*6A
$PENV,157847,1003.61,264.21,-1.00*01
$PENV,158097,1003.61,264.40,-1.00*0C
$PENV,158348,1003.62,264.00,-1.00*0A
$PENV,158598,1003.62,264.16,-1.00*06
$GNVTG,,T,,M,0.112,N,0.208,K,A*35
$GNGGA,152132.00,3259.18891,N,09643.38419,W,1,12,0.83,210.8,M,-25.3,M,,*77
$PTH,158778*64
$PENV,158849,1003.62,264.05,-1.00*05
$PENV,159099,1003.63,263.87,-1.00*0D
$PENV,159349,1003.63,263.91,-1.00*04
$PENV,159600,1003.63,263.82,-1.00*0E
$GNVTG,,T,,M,0.395,N,0.731,K,A*37
$GNGGA,152133.00,3259.18900,N,09643.38423,W,1,12,0.83,211.5,M,-25.3,M,,*7A
$PTH,159778*65
$PENV,159850,1003.62,263.98,-1.00*0F
$PENV,160101,1003.62,264.04,-1.00*0A
$PENV,160351,1003.63,263.79,-1.00*01
$PENV,160602,1003.62,263.98,-1.00*0C
$GNVTG,,T,,M,0.368,N,0.681,K,A*3F
$GNGGA,152134.00,3259.18902,N,09643.38430,W,1,12,0.83,212.0,M,-25.3,M,,*7B
$PTH,160772*65
$PENV,160852,1003.62,264.08,-1.00*09
$PENV,161102,1003.62,264.12,-1.00*0F
$PENV,161353,1003.62,264.03,-1.00*09
$PENV,161603,1003.63,263.83,-1.00*07
$GNVTG,63.22,T,,M,1.064,N,1.971,K,A*1B
$GNGGA,152135.00,3259.18903,N,09643.38430,W,1,12,0.83,212.2,M,-25.3,M,,*79
$PTH,161779*6F
$PENV,161854,1003.63,263.69,-1.00*0F
$PENV,162104,1003.63,263.85,-1.00*02
$PENV,162355,1003.64,263.65,-1.00*0D
$PENV,162605,1003.61,264.23,-1.00*0D
$GNVTG,,T,,M,0.145,N,0.269,K,A*30
$GNGGA,152136.00,3259.18914,N,09643.38428,W,1,12,0.88,212.6,M,-25.3,M,,*7A
$PTH,162779*6C
$PENV,162855,1003.62,264.04,-1.00*00
$PENV,163106,1003.62,264.11,-1.00*0A
$PENV,163356,1003.62,263.99,-1.00*0A
$PENV,163607,1003.61,264.31,-1.00*0D
$GNVTG,,T,,M,0.127,N,0.236,K,A*3E
$GNGGA,152137.00,3259.18914,N,09643.38439,W,1,12,0.81,212.9,M,-25.3,M,,*7D
$PTH,163798*62
$PENV,163857,1003.61,264.23,-1.00*05
$PENV,164108,1003.64,263.61,-1.00*05
$PENV,164358,1003.63,263.90,-1.00*0B
$PENV,164608,1003.63,263.74,-1.00*01
$GNVTG,,T,,M,0.161,N,0.298,K,A*38
$GNGGA,152138.00,3259.18907,N,09643.38448,W,1,12,0.83,213.0,M,-25.3,M,,*7C
$PTH,164793*6E
$PENV,164859,1003.63,263.90,-1.00*01
$PENV,165109,1003.62,263.94,-1.00*09
$PENV,165360,1003.62,264.18,-1.00*07
$PENV,165610,1003.63,263.73,-1.00*0E
$GNVTG,,T,,M,0.057,N,0.105,K,A*3B
$GNGGA,152139.00,3259.18907,N,09643.38452,W,1,12,0.83,213.5,M,-25.3,M,,*73
$PTH,165796*6A
$PENV,165860,1003.63,263.88,-1.00*03
$PENV,166111,1003.61,264.35,-1.00*0C
$PENV,166361,1003.61,264.24,-1.00*09
$PENV,166612,1003.62,264.06,-1.00*0B
$GNVTG,,T,,M,0.240,N,0.444,K,A*3F
$GNGGA,152140.00,3259.18895,N,09643.38461,W,1,12,0.81,213.6,M,-25.3,M,,*76
$PTH,166798*67
$PENV,166862,1003.64,263.61,-1.00*02
$PENV,167113,1003.63,263.83,-1.00*07
$PENV,167363,1003.62,264.02,-1.00*0D
$PENV,167613,1003.63,263.91,-1.00*03
$GNVTG,,T,,M,0.326,N,0.604,K,A*38
$GNGGA,152141.00,3259.18887,N,09643.38473,W,1,12,0.83,213.7,M,-25.3,M,,*74
$PTH,167788*67
$PENV,167864,1003.62,264.05,-1.00*06
$PENV,168114,1003.62,263.98,-1.00*04
$PENV,168365,1003.63,263.79,-1.00*0E
$PENV,168615,1003.64,263.62,-1.00*01
$GNVTG,,T,,M,0.556,N,1.029,K,A*31
$GNGGA,152142.00,3259.18877,N,09643.38473,W,1,12,0.88,213.7,M,-25.3,M,,*73
$PTH,168815*63
$PENV,168865,1003.64,263.63,-1.00*09
$PENV,169116,1003.64,263.54,-1.00*01
$PENV,169366,1003.63,263.91,-1.00*0A
$PENV,169617,1003.64,263.54,-1.00*07
$GNVTG,,T,,M,0.623,N,1.154,K,A*3B
$GNGGA,152143.00,3259.18864,N,09643.38469,W,1,12,0.80,213.6,M,-25.3,M,,*72
$PTH,169783*62
$PENV,169867,1003.63,263.80,-1.00*00
$PENV,170118,1003.64,263.53,-1.00*00
$PENV,170368,1003.64,263.51,-1.00*07
$PENV,170618,1003.64,263.53,-1.00*07
$GNVTG,,T,,M,0.165,N,0.306,K,A*3A
$GNGGA,152144.00,3259.18863,N,09643.38469,W,1,12,0.80,213.7,M,-25.3,M,,*73
$PTH,170787*6E
$PENV,170869,1003.65,263.23,-1.00*09
$PENV,171119,1003.66,263.07,-1.00*03
$PENV,171370,1003.65,263.32,-1.00*0B
$PENV,171620,1003.64,263.57,-1.00*09
$GNVTG,,T,,M,0.352,N,0.652,K,A*38
$GNGGA,152145.00,3259.18871,N,09643.38459,W,1,12,0.83,213.6,M,-25.3,M,,*70
$PTH,171787*6F
$PENV,171871,1003.65,263.21,-1.00*03
$PENV,172121,1003.65,263.21,-1.00*0C
$PENV,172371,1003.64,263.63,-1.00*0C
$PENV,172622,1003.65,263.16,-1.00*0C
$GNVTG,,T,,M,0.172,N,0.319,K,A*32
$GNGGA,152146.00,3259.18880,N,09643.38451,W,1,12,0.83,213.5,M,-25.3,M,,*76
$PTH,172778*6C
$PENV,172872,1003.65,263.36,-1.00*05
$PENV,173123,1003.65,263.34,-1.00*0B
$PENV,173373,1003.65,263.32,-1.00*0A
$PENV,173623,1003.64,263.45,-1.00*0B
$GNVTG,,T,,M,0.497,N,0.920,K,A*3C
$GNGGA,152147.00,3259.18887,N,09643.38430,W,1,12,0.88,213.2,M,-25.3,M,,*7B
$PTH,173787*6D
$PENV,173874,1003.64,263.61,-1.00*01
$PENV,174124,1003.64,263.40,-1.00*09
$PENV,174375,1003.64,263.45,-1.00*0A
$PENV,174625,1003.65,263.31,-1.00*08
$GNVTG,,T,,M,0.202,N,0.375,K,A*3C
$GNGGA,152148.00,3259.18905,N,09643.38407,W,1,12,0.88,213.1,M,-25.3,M,,*78
$PTH,174778*6A
$PENV,174876,1003.65,263.31,-1.00*00
$PENV,175126,1003.65,263.28,-1.00*05
$PENV,175376,1003.65,263.11,-1.00*08
$PENV,175627,1003.66,263.05,-1.00*0F
$GNVTG,,T,,M,0.628,N,1.162,K,A*35
$GNGGA,152149.00,3259.18902,N,09643.38398,W,1,12,0.83,212.9,M,-25.3,M,,*7D
$PTH,175782*6E
$PENV,175877,1003.65,263.14,-1.00*07
$PENV,176128,1003.65,263.23,-1.00*03
$PENV,176378,1003.64,263.60,-1.00*02
$PENV,176629,1003.65,263.36,-1.00*01
$GNVTG,,T,,M,0.097,N,0.180,K,A*3A
$GNGGA,152150.00,3259.18899,N,09643.38401,W,1,12,0.83,213.0,M,-25.3,M,,*79
$PTH,176783*6C
$PENV,176879,1003.66,262.95,-1.00*01
$PENV,177129,1003.65,263.20,-1.00*00
$PENV,177380,1003.64,263.41,-1.00*07
$PENV,177630,1003.64,263.65,-1.00*0F
$GNVTG,,T,,M,0.042,N,0.077,K,A*3B
$GNGGA,152151.00,3259.18894,N,09643.38408,W,1,12,0.73,213.0,M,-25.3,M,,*73
$PTH,177786*68
$PENV,177881,1003.66,262.95,-1.00*07
$PENV,178131,1003.65,263.26,-1.00*00
$PENV,178382,1003.64,263.63,-1.00*0A
$PENV,178632,1003.67,262.68,-1.00*0D
$GNVTG,,T,,M,0.317,N,0.588,K,A*3D
$GNGGA,152152.00,3259.18884,N,09643.38418,W,1,12,0.75,213.1,M,-25.3,M,,*77
$PTH,178780*61
$PENV,178882,1003.65,263.33,-1.00*05
$PENV,179133,1003.65,263.27,-1.00*02
$PENV,179383,1003.67,262.72,-1.00*08
$PENV,179634,1003.66,262.96,-1.00*0A
$GNVTG,,T,,M,0.421,N,0.779,K,A*33
$GNGGA,152153.00,3259.18878,N,09643.38424,W,1,12,0.82,213.2,M,-25.3,M,,*71
$PTH,179785*65
$PENV,179884,1003.66,263.01,-1.00*00
$PENV,180135,1003.65,263.19,-1.00*0F
$PENV,180385,1003.66,262.94,-1.00*01
$PENV,180635,1003.65,263.17,-1.00*06
$GNVTG,,T,,M,0.278,N,0.515,K,A*31
$GNGGA,152154.00,3259.18869,N,09643.38418,W,1,12,0.75,212.8,M,-25.3,M,,*7A
$PTH,180787*61
$PENV,180886,1003.66,262.85,-1.00*09
$PENV,181136,1003.66,262.94,-1.00*0A
$PENV,181387,1003.65,263.13,-1.00*0F
$PENV,181637,1003.66,262.82,-1.00*0B
$GNVTG,,T,,M,0.428,N,0.793,K,A*3E
$GNGGA,152155.00,3259.18853,N,09643.38426,W,1,12,0.75,212.9,M,-25.3,M,,*7E
$PTH,181781*66
$PENV,181888,1003.66,262.86,-1.00*05
$PENV,182138,1003.67,262.72,-1.00*0E
$PENV,182389,1003.67,262.73,-1.00*07
$PENV,182639,1003.65,263.22,-1.00*0E
$GNVTG,,T,,M,0.068,N,0.127,K,A*37
$GNGGA,152156.00,3259.18842,N,09643.38430,W,1,12,0.82,212.9,M,-25.3,M,,*72
$PTH,182782*66
$PENV,182889,1003.65,263.19,-1.00*03
$PENV,183140,1003.66,263.07,-1.00*02
$PENV,183390,1003.66,263.07,-1.00*0D
$PENV,183641,1003.66,262.88,-1.00*02
$GNVTG,,T,,M,0.161,N,0.298,K,A*38
$GNGGA,152157.00,3259.18843,N,09643.38431,W,1,12,0.76,212.9,M,-25.3,M,,*78
$PTH,183771*6B
$PENV,183891,1003.67,262.77,-1.00*00
$PENV,184142,1003.67,262.78,-1.00*0F
$PENV,184392,1003.65,263.13,-1.00*0E
$PENV,184642,1003.65,263.22,-1.00*04
$GNVTG,,T,,M,0.172,N,0.318,K,A*33
$GNGGA,152158.00,3259.18842,N,09643.38441,W,1,12,0.73,212.9,M,-25.3,M,,*74
$PTH,184777*6A
$PENV,184893,1003.65,263.24,-1.00*00
$PENV,185143,1003.65,263.14,-1.00*06
$PENV,185394,1003.66,262.87,-1.00*06
$PENV,185644,1003.66,262.92,-1.00*0A
$GNVTG,,T,,M,0.422,N,0.782,K,A*34
$GNGGA,152159.00,3259.18835,N,09643.38446,W,1,12,0.73,212.8,M,-25.3,M,,*73
$PTH,185782*61
$PENV,185895,1003.66,262.96,-1.00*0C
$PENV,186145,1003.66,262.91,-1.00*0C
$PENV,186395,1003.67,262.75,-1.00*08
$PENV,186646,1003.66,262.95,-1.00*0C
$GNVTG,,T,,M,0.169,N,0.313,K,A*32
$GNGGA,152200.00,3259.18832,N,09643.38452,W,1,12,0.73,212.8,M,-25.3,M,,*7E
$PTH,186784*64
$PENV,186896,1003.65,263.17,-1.00*07
$PENV,187147,1003.65,263.23,-1.00*04
$PENV,187397,1003.64,263.40,-1.00*0F
$PENV,187648,1003.67,262.73,-1.00*0A
$GNVTG,,T,,M,0.057,N,0.106,K,A*38
$GNGGA,152201.00,3259.18826,N,09643.38452,W,1,12,0.73,212.6,M,-25.3,M,,*74
$PTH,187786*67
$PENV,187898,1003.66,263.09,-1.00*04
$PENV,188148,1003.66,262.94,-1.00*0A
$PENV,188399,1003.66,263.10,-1.00*09
$PENV,188649,1003.66,263.02,-1.00*02
$GNVTG,,T,,M,0.420,N,0.777,K,A*3C
$GNGGA,152202.00,3259.18826,N,09643.38454,W,1,12,0.76,212.6,M,-25.3,M,,*74
$PTH,188785*6B
$PENV,188900,1003.67,262.77,-1.00*02
$PENV,189150,1003.66,263.04,-1.00*0A
$PENV,189401,1003.66,262.93,-1.00*04
$PENV,189651,1003.65,263.17,-1.00*0D
$GNVTG,,T,,M,0.336,N,0.623,K,A*3C
$GNGGA,152203.00,3259.18833,N,09643.38445,W,1,12,0.75,212.5,M,-25.3,M,,*71
$PTH,189777*67
$PENV,189901,1003.66,263.01,-1.00*03
$PENV,190152,1003.67,262.78,-1.00*0B
$PENV,190402,1003.65,263.15,-1.00*03
$PENV,190653,1003.67,262.80,-1.00*0A
$GNVTG,,T,,M,0.359,N,0.664,K,A*36
$GNGGA,152204.00,3259.18845,N,09643.38436,W,1,12,0.73,212.5,M,-25.3,M,,*75
$PTH,190783*64
$PENV,190903,1003.66,262.87,-1.00*06
$PENV,191154,1003.65,263.10,-1.00*01
$PENV,191404,1003.66,262.83,-1.00*09
$PENV,191654,1003.66,262.91,-1.00*0D
$GNVTG,,T,,M,0.196,N,0.362,K,A*34
$GNGGA,152205.00,3259.18855,N,09643.38438,W,1,12,0.73,212.9,M,-25.3,M,,*77
$PTH,191786*60
$PENV,191905,1003.65,263.21,-1.00*0F
$PENV,192155,1003.66,263.00,-1.00*01
$PENV,192406,1003.66,262.88,-1.00*03
$PENV,192656,1003.65,263.33,-1.00*06
$GNVTG,,T,,M,0.067,N,0.124,K,A*3B
$GNGGA,152206.00,3259.18853,N,09643.38443,W,1,12,0.76,212.9,M,-25.3,M,,*7B
$PTH,192776*6C
$PENV,192907,1003.65,263.30,-1.00*0E
$PENV,193157,1003.66,263.05,-1.00*07
$PENV,193407,1003.65,263.13,-1.00*03
$PENV,193658,1003.65,263.37,-1.00*0D
$GNVTG,,T,,M,0.724,N,1.342,K,A*38
$GNGGA,152207.00,3259.18860,N,09643.38450,W,1,12,0.73,213.1,M,-25.3,M,,*74
$PTH,193783*67
$PENV,193908,1003.65,263.25,-1.00*04
$PENV,194159,1003.64,263.42,-1.00*0F
$PENV,194409,1003.64,263.42,-1.00*0F
$PENV,194660,1003.64,263.50,-1.00*01
$GNVTG,,T,,M,0.627,N,1.161,K,A*39
$GNGGA,152208.00,3259.18882,N,09643.38446,W,1,12,0.73,213.3,M,-25.3,M,,*72
$PTH,194803*67
$PENV,194910,1003.64,263.53,-1.00*0A
$PENV,195160,1003.65,263.33,-1.00*03
$PENV,195411,1003.64,263.58,-1.00*0C
$PENV,195661,1003.64,263.39,-1.00*0E
$GNVTG,,T,,M,0.649,N,1.203,K,A*36
$GNGGA,152209.00,3259.18900,N,09643.38445,W,1,12,0.70,213.3,M,-25.3,M,,*78
$PTH,195792*61
$PENV,195912,1003.66,262.99,-1.00*0C
$PENV,196162,1003.65,263.12,-1.00*01
$PENV,196413,1003.64,263.63,-1.00*05
$PENV,196663,1003.66,263.07,-1.00*00
$GNVTG,,T,,M,0.595,N,1.103,K,A*37
$GNGGA,152210.00,3259.18918,N,09643.38458,W,1,12,0.76,213.3,M,-25.3,M,,*73
$PTH,196790*60
$PENV,196914,1003.64,263.40,-1.00*0E
$PENV,197164,1003.63,263.66,-1.00*03
$PENV,197414,1003.65,263.19,-1.00*0F
$PENV,197665,1003.64,263.50,-1.00*07
$GNVTG,,T,,M,0.218,N,0.404,K,A*36
$GNGGA,152211.00,3259.18905,N,09643.38464,W,1,12,0.73,212.8,M,-25.3,M,,*7E
$PTH,197797*66
$PENV,197915,1003.66,263.09,-1.00*01
$PENV,198166,1003.64,263.41,-1.00*0C
$PENV,198416,1003.66,263.04,-1.00*0D
$PENV,198666,1003.66,262.82,-1.00*07
$GNVTG,,T,,M,0.125,N,0.231,K,A*3B
$GNGGA,152212.00,3259.18881,N,09643.38472,W,1,12,0.76,212.3,M,-25.3,M,,*79
$PTH,198801*69
$PENV,198917,1003.68,262.51,-1.00*0E
$PENV,199167,1003.65,263.21,-1.00*0B
$PENV,199418,1003.67,262.74,-1.00*05
$PENV,199668,1003.67,262.72,-1.00*06
$GNVTG,,T,,M,0.274,N,0.507,K,A*3E
$GNGGA,152213.00,3259.18869,N,09643.38481,W,1,12,0.73,212.0,M,-25.3,M,,*74
$PTH,199785*6B
$PENV,199919,1003.66,263.04,-1.00*0E
$PENV,200169,1003.66,262.84,-1.00*0B
$PENV,200420,1003.66,262.98,-1.00*0E
$PENV,200670,1003.66,262.92,-1.00*03
$GNVTG,,T,,M,0.530,N,0.981,K,A*3B
$GNGGA,152214.00,3259.18846,N,09643.38483,W,1,12,0.76,211.4,M,-25.3,M,,*7E
$PTH,200785*68
$PENV,200920,1003.66,262.97,-1.00*0C
$PENV,201171,1003.67,262.78,-1.00*01
$PENV,201421,1003.68,262.46,-1.00*03
$PENV,201672,1003.67,262.60,-1.00*0C
$GNVTG,,T,,M,0.235,N,0.434,K,A*3A
$GNGGA,152215.00,3259.18824,N,09643.38489,W,1,12,0.80,210.9,M,-25.3,M,,*74
$PTH,201788*64
$PENV,201922,1003.67,262.79,-1.00*0E
$PENV,202173,1003.68,262.51,-1.00*04
$PENV,202423,1003.68,262.42,-1.00*06
$PENV,202673,1003.68,262.50,-1.00*02
$GNVTG,,T,,M,0.095,N,0.177,K,A*30
$GNGGA,152216.00,3259.18813,N,09643.38500,W,1,12,0.76,210.8,M,-25.3,M,,*7B
$PTH,202778*68
$PENV,202924,1003.66,262.89,-1.00*05
$PENV,203174,1003.68,262.50,-1.00*03
$PENV,203425,1003.66,262.88,-1.00*09
$PENV,203675,1003.68,262.32,-1.00*01
$GNVTG,,T,,M,0.221,N,0.408,K,A*30
$GNGGA,152217.00,3259.18805,N,09643.38506,W,1,12,0.80,210.4,M,-25.3,M,,*7E
$PTH,203783*6D
$PENV,203926,1003.69,262.16,-1.00*0F
$PENV,204176,1003.68,262.48,-1.00*0F
$PENV,204426,1003.68,262.52,-1.00*04
$PENV,204677,1003.68,262.43,-1.00*02
$GNVTG,,T,,M,0.242,N,0.448,K,A*31
$GNGGA,152218.00,3259.18798,N,09643.38507,W,1,12,0.86,209.9,M,-25.3,M,,*78
$PTH,204775*63
$PENV,204927,1003.68,262.53,-1.00*09
$PENV,205178,1003.68,262.29,-1.00*07
$PENV,205428,1003.69,262.24,-1.00*0B
$PENV,205679,1003.68,262.33,-1.00*0A
$GNVTG,51.11,T,,M,0.829,N,1.536,K,A*15
$GNGGA,152219.00,3259.18797,N,09643.38505,W,1,12,0.76,209.5,M,-25.3,M,,*77
$PTH,205782*6A
$PENV,205929,1003.69,262.03,-1.00*02
$PENV,206179,1003.69,262.14,-1.00*0A
$PENV,206430,1003.70,261.89,-1.00*0D
$PENV,206680,1003.70,261.83,-1.00*0E
$GNVTG,,T,,M,0.142,N,0.262,K,A*3C
$GNGGA,152220.00,3259.18797,N,09643.38500,W,1,12,0.76,209.3,M,-25.3,M,,*7E
$PTH,206774*60
$PENV,206931,1003.71,261.58,-1.00*0C
$PENV,207181,1003.69,262.06,-1.00*0F
$PENV,207432,1003.70,261.99,-1.00*0F
$PENV,207682,1003.71,261.68,-1.00*09
$GNVTG,,T,,M,0.050,N,0.094,K,A*35
$GNGGA,152221.00,3259.18788,N,09643.38500,W,1,12,0.77,209.3,M,-25.3,M,,*70
$PTH,207774*61
$PENV,207933,1003.69,262.04,-1.00*0C
$PENV,208183,1003.69,262.10,-1.00*05
$PENV,208433,1003.70,261.88,-1.00*01
$PENV,208684,1003.71,261.71,-1.00*08
$GNVTG,,T,,M,0.681,N,1.260,K,A*37
$GNGGA,152222.00,3259.18790,N,09643.38492,W,1,12,0.76,209.0,M,-25.3,M,,*72
$PTH,208769*62
$PENV,208934,1003.70,261.95,-1.00*07
$PENV,209185,1003.69,262.24,-1.00*05
$PENV,209435,1003.69,262.06,-1.00*0B
$PENV,209686,1003.69,262.15,-1.00*03
$GNVTG,,T,,M,0.311,N,0.577,K,A*3B
$GNGGA,152223.00,3259.18794,N,09643.38482,W,1,12,0.76,208.9,M,-25.3,M,,*7E
$PTH,209774*6F
$PENV,209936,1003.70,261.92,-1.00*03
$PENV,210186,1003.69,262.04,-1.00*0C
$PENV,210437,1003.67,262.55,-1.00*09
$PENV,210687,1003.70,261.76,-1.00*04
$GNVTG,,T,,M,0.220,N,0.408,K,A*31
$GNGGA,152224.00,3259.18794,N,09643.38467,W,1,12,0.79,208.6,M,-25.3,M,,*72
$PTH,210781*6D
$PENV,210938,1003.70,261.92,-1.00*05
$PENV,211188,1003.70,261.73,-1.00*08
$PENV,211439,1003.69,262.17,-1.00*0E
$PENV,211689,1003.69,262.06,-1.00*07
$GNVTG,,T,,M,0.166,N,0.307,K,A*38
$GNGGA,152225.00,3259.18786,N,09643.38457,W,1,12,0.76,208.3,M,-25.3,M,,*79
$PTH,211786*6B
$PENV,211939,1003.70,261.76,-1.00*0F
$PENV,212190,1003.69,262.14,-1.00*08
$PENV,212440,1003.70,261.92,-1.00*05
$PENV,212691,1003.70,261.90,-1.00*09
$GNVTG,,T,,M,0.408,N,0.755,K,A*36
$GNGGA,152226.00,3259.18772,N,09643.38447,W,1,12,0.76,208.0,M,-25.3,M,,*73
$PTH,212780*6E
$PENV,212941,1003.70,261.94,-1.00*0F
$PENV,213192,1003.69,262.25,-1.00*09
$PENV,213442,1003.69,262.09,-1.00*0F
$PENV,213692,1003.68,262.40,-1.00*0C
$GNVTG,,T,,M,0.359,N,0.664,K,A*36
$GNGGA,152227.00,3259.18766,N,09643.38438,W,1,12,0.80,207.8,M,-25.3,M,,*71
$PTH,213787*68
$PENV,213943,1003.68,262.47,-1.00*08
$PENV,214193,1003.67,262.58,-1.00*0B
$PENV,214444,1003.68,262.37,-1.00*02
$PENV,214694,1003.69,262.20,-1.00*0A
$GNVTG,,T,,M,0.789,N,1.461,K,A*39
$GNGGA,152228.00,3259.18764,N,09643.38420,W,1,12,0.80,207.6,M,-25.3,M,,*7B
$PTH,214783*6B
$PENV,214945,1003.70,261.90,-1.00*09
$PENV,215195,1003.67,262.61,-1.00*06
$PENV,215445,1003.69,262.13,-1.00*05
$PENV,215696,1003.68,262.51,-1.00*0E
$GNVTG,,T,,M,0.352,N,0.652,K,A*38
$GNGGA,152229.00,3259.18765,N,09643.38395,W,1,12,0.76,207.3,M,-25.3,M,,*7E
$PTH,215785*6C
$PENV,215946,1003.68,262.47,-1.00*0B
$PENV,216197,1003.68,262.32,-1.00*0E
$PENV,216447,1003.68,262.46,-1.00*05
$PENV,216698,1003.68,262.38,-1.00*0C
$GNVTG,,T,,M,0.316,N,0.584,K,A*30
$GNGGA,152230.00,3259.18773,N,09643.38373,W,1,12,0.80,207.1,M,-25.3,M,,*72
$PTH,216784*6E
$PENV,216948,1003.68,262.35,-1.00*03
$PENV,217198,1003.68,262.44,-1.00*01
$PENV,217449,1003.66,263.06,-1.00*01
$PENV,217699,1003.68,262.50,-1.00*02
$GNVTG,,T,,M,0.444,N,0.822,K,A*31
