$PVER,"Tempo V1 0.1.0 (0a5cd0e-dirty)",101*7C
$PSFC,204*1C
$PST,78,ARMED,LOGGING,manual_start*61
$PENV,327,1005.78,204.71,-1.00*32
$PENV,578,1005.77,204.89,-1.00*36
$PENV,828,1005.78,204.54,-1.00*31
$GNVTG,269.74,T,,M,0.501,N,0.928,K,D*2F
$GNGGA,170106.00,3259.18728,N,09643.38253,W,2,12,0.65,207.4,M,-25.3,M,,*74
$PTH,1057*63
$PENV,1078,1005.77,204.89,-1.00*02
$PENV,1329,1005.76,205.20,-1.00*06
$PENV,1579,1005.77,204.99,-1.00*07
$PENV,1830,1005.77,204.98,-1.00*06
$GNVTG,,T,,M,0.269,N,0.498,K,D*30
$GNGGA,170107.00,3259.18713,N,09643.38262,W,2,12,0.78,207.2,M,-25.3,M,,*75
$PTH,2060*64
$PENV,2080,1005.77,204.85,-1.00*0A
$PENV,2331,1005.78,204.63,-1.00*04
$PENV,2581,1005.78,204.78,-1.00*03
$PENV,2831,1005.79,204.50,-1.00*0E
$GNVTG,,T,,M,0.328,N,0.607,K,D*30
$GNGGA,170108.00,3259.18693,N,09643.38267,W,2,12,0.72,206.8,M,-25.3,M,,*77
$PTH,3067*62
$PENV,3082,1005.78,204.68,-1.00*05
$PENV,3332,1005.77,204.95,-1.00*00
$PENV,3583,1005.78,204.60,-1.00*09
$PENV,3833,1005.77,205.04,-1.00*03
$GNVTG,,T,,M,0.162,N,0.300,K,D*3E
$GNGGA,170109.00,3259.18677,N,09643.38252,W,2,12,0.61,207.1,M,-25.3,M,,*70
$PTH,4069*6B
$PENV,4084,1005.78,204.71,-1.00*0C
$PENV,4334,1005.76,205.13,-1.00*0F
$PENV,4584,1005.78,204.74,-1.00*0C
$PENV,4835,1005.76,205.11,-1.00*07
$GNVTG,,T,,M,0.136,N,0.253,K,D*38
$GNGGA,170110.00,3259.18665,N,09643.38255,W,2,12,0.77,206.4,M,-25.3,M,,*7F
$PTH,5056*66
$PENV,5085,1005.77,204.89,-1.00*04
$PENV,5336,1005.77,204.92,-1.00*05
$PENV,5586,1005.78,204.73,-1.00*08
$PENV,5837,1005.77,204.86,-1.00*0A
$GNVTG,,T,,M,0.144,N,0.267,K,D*3A
$GNGGA,170111.00,3259.18653,N,09643.38263,W,2,12,0.70,205.9,M,-25.3,M,,*77
$PTH,6053*60
$PENV,6087,1005.77,205.02,-1.00*07
$PENV,6337,1005.78,204.73,-1.00*07
$PENV,6588,1005.77,204.89,-1.00*0F
$PENV,6838,1005.77,205.04,-1.00*0D
$GNVTG,,T,,M,0.065,N,0.120,K,D*38
$GNGGA,170112.00,3259.18641,N,09643.38267,W,2,12,0.58,205.6,M,-25.3,M,,*76
$PTH,7057*65
$PENV,7089,1005.77,204.98,-1.00*0A
$PENV,7339,1005.77,204.89,-1.00*02
$PENV,7590,1005.77,205.02,-1.00*05
$PENV,7840,1005.76,205.22,-1.00*06
$GNVTG,,T,,M,0.075,N,0.139,K,D*31
$GNGGA,170113.00,3259.18631,N,09643.38272,W,2,12,0.64,205.3,M,-25.3,M,,*7E
$PTH,8057*6A
$PENV,8090,1005.76,205.12,-1.00*0F
$PENV,8341,1005.78,204.64,-1.00*0E
$PENV,8591,1005.77,204.98,-1.00*09
$PENV,8842,1005.77,204.91,-1.00*03
$GNVTG,,T,,M,0.163,N,0.302,K,D*3D
$GNGGA,170114.00,3259.18622,N,09643.38277,W,2,12,0.61,205.1,M,-25.3,M,,*79
$PTH,9062*6D
$PENV,9092,1005.76,205.24,-1.00*09
$PENV,9343,1005.76,205.28,-1.00*0A
$PENV,9593,1005.76,205.31,-1.00*09
$PENV,9843,1005.78,204.68,-1.00*0A
$GNVTG,,T,,M,0.091,N,0.169,K,D*3E
$GNGGA,170115.00,3259.18615,N,09643.38288,W,2,12,0.57,204.6,M,-25.3,M,,*7F
$PTH,10063*54
$PENV,10094,1005.78,204.60,-1.00*38
$PENV,10344,1005.76,205.25,-1.00*38
$PENV,10595,1005.78,204.78,-1.00*35
$PENV,10845,1005.77,205.00,-1.00*34
$GNVTG,,T,,M,0.031,N,0.057,K,D*38
$GNGGA,170116.00,3259.18612,N,09643.38296,W,2,12,0.61,204.3,M,-25.3,M,,*74
$PTH,11063*55
$PENV,11096,1005.78,204.70,-1.00*3A
$PENV,11346,1005.76,205.15,-1.00*38
$PENV,11596,1005.77,205.03,-1.00*35
$PENV,11847,1005.77,205.04,-1.00*33
$GNVTG,,T,,M,0.136,N,0.253,K,D*38
$GNGGA,170117.00,3259.18606,N,09643.38300,W,2,12,0.61,204.1,M,-25.3,M,,*7C
$PTH,12062*57
$PENV,12097,1005.76,205.09,-1.00*39
$PENV,12348,1005.77,204.95,-1.00*3D
$PENV,12598,1005.76,205.16,-1.00*3D
$PENV,12849,1005.76,205.30,-1.00*38
$GNVTG,,T,,M,0.128,N,0.237,K,D*35
$GNGGA,170118.00,3259.18602,N,09643.38299,W,2,12,0.58,204.0,M,-25.3,M,,*7D
$PTH,13057*50
$PENV,13099,1005.77,205.04,-1.00*3A
$PENV,13350,1005.77,204.95,-1.00*35
$PENV,13600,1005.76,205.30,-1.00*3A
$PENV,13850,1005.76,205.28,-1.00*38
$GNVTG,,T,,M,0.191,N,0.354,K,D*33
$GNGGA,170119.00,3259.18596,N,09643.38302,W,2,12,0.61,203.8,M,-25.3,M,,*74
$PTH,14063*50
$PENV,14101,1005.77,204.87,-1.00*37
$PENV,14351,1005.76,205.07,-1.00*38
$PENV,14602,1005.76,205.15,-1.00*38
$PENV,14852,1005.76,205.26,-1.00*33
$GNVTG,,T,,M,0.111,N,0.205,K,D*3E
$GNGGA,170120.00,3259.18588,N,09643.38302,W,2,12,0.61,203.6,M,-25.3,M,,*7F
$PTH,15063*51
$PENV,15103,1005.78,204.78,-1.00*3B
$PENV,15353,1005.78,204.60,-1.00*35
$PENV,15603,1005.78,204.73,-1.00*37
$PENV,15854,1005.77,205.04,-1.00*35
$GNVTG,,T,,M,0.200,N,0.370,K,D*3E
$GNGGA,170121.00,3259.18583,N,09643.38303,W,2,12,0.57,203.5,M,-25.3,M,,*72
$PTH,16063*52
$PENV,16104,1005.78,204.78,-1.00*3F
$PENV,16355,1005.78,204.76,-1.00*37
$PENV,16605,1005.79,204.50,-1.00*32
$PENV,16856,1005.77,204.88,-1.00*31
$GNVTG,,T,,M,0.064,N,0.119,K,D*33
$GNGGA,170122.00,3259.18581,N,09643.38304,W,2,12,0.60,203.3,M,-25.3,M,,*76
$PTH,17058*5B
$PENV,17106,1005.78,204.70,-1.00*34
$PENV,17357,1005.77,204.91,-1.00*32
$PENV,17607,1005.77,205.03,-1.00*38
$PENV,17857,1005.78,204.53,-1.00*38
$GNVTG,,T,,M,0.197,N,0.364,K,D*36
$GNGGA,170123.00,3259.18581,N,09643.38305,W,2,12,0.60,203.1,M,-25.3,M,,*74
$PTH,18063*5C
$PENV,18108,1005.78,204.63,-1.00*37
$PENV,18358,1005.78,204.78,-1.00*3A
$PENV,18609,1005.79,204.46,-1.00*37
$PENV,18859,1005.78,204.59,-1.00*33
$GNVTG,,T,,M,0.087,N,0.162,K,D*32
$GNGGA,170124.00,3259.18583,N,09643.38303,W,2,12,0.57,202.9,M,-25.3,M,,*7A
$PTH,19057*5A
$PENV,19110,1005.77,204.95,-1.00*39
$PENV,19360,1005.78,204.65,-1.00*3C
$PENV,19610,1005.79,204.39,-1.00*36
$PENV,19861,1005.79,204.40,-1.00*30
$GNVTG,,T,,M,0.106,N,0.197,K,D*30
$GNGGA,170125.00,3259.18585,N,09643.38298,W,2,12,0.57,202.7,M,-25.3,M,,*70
$PTH,20062*56
$PENV,20111,1005.78,204.72,-1.00*34
$PENV,20362,1005.78,204.69,-1.00*38
$PENV,20612,1005.77,204.94,-1.00*37
$PENV,20863,1005.77,204.79,-1.00*3C
$GNVTG,,T,,M,0.109,N,0.201,K,D*33
$GNGGA,170126.00,3259.18589,N,09643.38293,W,2,12,0.57,202.5,M,-25.3,M,,*76
$PTH,21058*5E
$PENV,21113,1005.78,204.72,-1.00*37
$PENV,21363,1005.77,205.03,-1.00*3A
$PENV,21614,1005.76,205.14,-1.00*38
$PENV,21864,1005.77,204.81,-1.00*3D
$GNVTG,,T,,M,0.072,N,0.134,K,D*3B
$GNGGA,170127.00,3259.18590,N,09643.38293,W,2,12,0.55,202.2,M,-25.3,M,,*7A
$PTH,22060*56
$PENV,22115,1005.77,204.97,-1.00*36
$PENV,22365,1005.77,205.00,-1.00*3C
$PENV,22616,1005.76,205.08,-1.00*34
$PENV,22866,1005.77,204.81,-1.00*3C
$GNVTG,,T,,M,0.093,N,0.171,K,D*35
$GNGGA,170128.00,3259.18591,N,09643.38293,W,2,12,0.57,202.3,M,-25.3,M,,*77
$PTH,23058*5C
$PENV,23116,1005.78,204.65,-1.00*36
$PENV,23367,1005.77,204.91,-1.00*36
$PENV,23617,1005.77,205.04,-1.00*39
$PENV,23868,1005.76,205.24,-1.00*3C
$GNVTG,,T,,M,0.030,N,0.055,K,D*3B
$GNGGA,170129.00,3259.18592,N,09643.38294,W,2,12,0.57,202.4,M,-25.3,M,,*75
$PTH,24061*51
$PENV,24118,1005.76,205.09,-1.00*3A
$PENV,24369,1005.77,205.03,-1.00*35
$PENV,24619,1005.78,204.79,-1.00*34
$PENV,24869,1005.77,205.06,-1.00*3B
$GNVTG,,T,,M,0.064,N,0.119,K,D*33
$GNGGA,170130.00,3259.18592,N,09643.38296,W,2,12,0.57,202.4,M,-25.3,M,,*7F
$PTH,25065*54
$PENV,25120,1005.76,205.15,-1.00*3D
$PENV,25370,1005.77,205.00,-1.00*3F
$PENV,25621,1005.76,205.20,-1.00*3D
$PENV,25871,1005.77,204.80,-1.00*3C
$GNVTG,,T,,M,0.113,N,0.209,K,D*30
$GNGGA,170131.00,3259.18594,N,09643.38296,W,2,12,0.57,202.4,M,-25.3,M,,*78
$PTH,26078*5B
$PENV,26122,1005.77,204.88,-1.00*38
$PENV,26372,1005.78,204.74,-1.00*33
$PENV,26623,1005.80,204.20,-1.00*34
$PENV,26873,1005.77,205.04,-1.00*30
$GNVTG,,T,,M,0.051,N,0.095,K,D*30
$GNGGA,170132.00,3259.18596,N,09643.38297,W,2,12,0.57,202.4,M,-25.3,M,,*78
$PTH,27059*59
$PENV,27123,1005.78,204.62,-1.00*33
$PENV,27374,1005.78,204.65,-1.00*34
$PENV,27624,1005.77,204.92,-1.00*33
$PENV,27875,1005.77,205.02,-1.00*31
$GNVTG,,T,,M,0.140,N,0.259,K,D*33
$GNGGA,170133.00,3259.18594,N,09643.38299,W,2,12,0.55,202.4,M,-25.3,M,,*77
$PTH,28059*56
$PENV,28125,1005.77,204.83,-1.00*3A
$PENV,28376,1005.79,204.51,-1.00*3F
$PENV,28626,1005.77,204.85,-1.00*38
$PENV,28876,1005.78,204.78,-1.00*3E
$GNVTG,,T,,M,0.058,N,0.107,K,D*33
$GNGGA,170134.00,3259.18593,N,09643.38298,W,2,12,0.57,202.3,M,-25.3,M,,*73
$PTH,29049*56
$PENV,29127,1005.78,204.64,-1.00*3F
$PENV,29377,1005.78,204.72,-1.00*3F
$PENV,29628,1005.78,204.67,-1.00*34
$PENV,29878,1005.77,205.03,-1.00*33
$GNVTG,,T,,M,0.227,N,0.419,K,D*33
$GNGGA,170135.00,3259.18593,N,09643.38294,W,2,12,0.57,202.2,M,-25.3,M,,*7F
$PTH,30053*55
$PENV,30129,1005.77,205.04,-1.00*31
$PENV,30379,1005.77,205.05,-1.00*37
$PENV,30630,1005.77,204.89,-1.00*3A
$PENV,30880,1005.77,204.79,-1.00*30
$GNVTG,,T,,M,0.066,N,0.122,K,D*39
$GNGGA,170136.00,3259.18590,N,09643.38294,W,2,12,0.58,202.2,M,-25.3,M,,*70
$PTH,31045*53
$PENV,31130,1005.78,204.74,-1.00*31
$PENV,31381,1005.77,205.03,-1.00*37
$PENV,31631,1005.77,204.96,-1.00*34
$PENV,31882,1005.78,204.74,-1.00*31
$GNVTG,,T,,M,0.252,N,0.467,K,D*38
$GNGGA,170137.00,3259.18586,N,09643.38296,W,2,12,0.57,202.3,M,-25.3,M,,*7A
$PTH,32057*53
$PENV,32132,1005.78,204.71,-1.00*35
$PENV,32382,1005.78,204.65,-1.00*39
$PENV,32633,1005.78,204.65,-1.00*36
$PENV,32883,1005.77,204.88,-1.00*3F
$GNVTG,,T,,M,0.118,N,0.218,K,D*3B
$GNGGA,170138.00,3259.18585,N,09643.38296,W,2,12,0.61,202.4,M,-25.3,M,,*74
$PTH,33076*51
$PENV,33134,1005.78,204.69,-1.00*3B
$PENV,33384,1005.78,204.56,-1.00*3E
$PENV,33635,1005.78,204.74,-1.00*31
$PENV,33885,1005.77,204.99,-1.00*38
$GNVTG,,T,,M,0.142,N,0.263,K,D*38
$GNGGA,170139.00,3259.18591,N,09643.38295,W,2,12,0.59,202.5,M,-25.3,M,,*79
$PTH,34057*55
$PENV,34136,1005.77,204.95,-1.00*32
$PENV,34386,1005.76,205.20,-1.00*35
$PENV,34636,1005.77,204.89,-1.00*38
$PENV,34887,1005.78,204.75,-1.00*30
$GNVTG,,T,,M,0.205,N,0.380,K,D*34
$GNGGA,170140.00,3259.18597,N,09643.38296,W,2,12,0.57,202.6,M,-25.3,M,,*7F
$PTH,35064*54
$PENV,35137,1005.78,204.53,-1.00*37
$PENV,35388,1005.77,204.93,-1.00*32
$PENV,35638,1005.77,204.81,-1.00*3F
$PENV,35889,1005.77,204.82,-1.00*38
$GNVTG,,T,,M,0.195,N,0.362,K,D*32
$GNGGA,170141.00,3259.18601,N,09643.38297,W,2,12,0.58,202.6,M,-25.3,M,,*7C
$PTH,36056*56
$PENV,36139,1005.78,204.69,-1.00*33
$PENV,36389,1005.78,204.62,-1.00*31
$PENV,36640,1005.77,204.91,-1.00*32
$PENV,36890,1005.78,204.75,-1.00*34
$GNVTG,,T,,M,0.013,N,0.023,K,D*3B
$GNGGA,170142.00,3259.18602,N,09643.38300,W,2,12,0.60,202.6,M,-25.3,M,,*78
$PTH,37077*54
$PENV,37141,1005.77,205.04,-1.00*38
$PENV,37391,1005.77,204.80,-1.00*3A
$PENV,37642,1005.76,205.11,-1.00*39
$PENV,37892,1005.77,204.95,-1.00*36
$GNVTG,,T,,M,0.030,N,0.055,K,D*3B
$GNGGA,170143.00,3259.18604,N,09643.38298,W,2,12,0.57,202.7,M,-25.3,M,,*7A
$PTH,38059*57
$PENV,38142,1005.79,204.46,-1.00*3D
$PENV,38393,1005.78,204.52,-1.00*37
$PENV,38643,1005.78,204.73,-1.00*3C
$PENV,38894,1005.78,204.58,-1.00*31
$GNVTG,,T,,M,0.047,N,0.088,K,D*3B
$GNGGA,170144.00,3259.18605,N,09643.38296,W,2,12,0.56,202.7,M,-25.3,M,,*73
$PTH,39065*59
$PENV,39144,1005.79,204.49,-1.00*35
$PENV,39395,1005.79,204.52,-1.00*31
$PENV,39645,1005.79,204.42,-1.00*38
$PENV,39895,1005.78,204.78,-1.00*33
$GNVTG,,T,,M,0.087,N,0.162,K,D*32
$GNGGA,170145.00,3259.18609,N,09643.38294,W,2,12,0.59,202.7,M,-25.3,M,,*73
$PTH,40064*56
$PENV,40146,1005.79,204.27,-1.00*31
$PENV,40396,1005.79,204.51,-1.00*3F
$PENV,40647,1005.78,204.56,-1.00*30
$PENV,40897,1005.78,204.77,-1.00*30
$GNVTG,,T,,M,0.071,N,0.131,K,D*3D
$GNGGA,170146.00,3259.18612,N,09643.38294,W,2,12,0.58,202.8,M,-25.3,M,,*74
$PTH,41056*56
$PENV,41148,1005.78,204.71,-1.00*3C
$PENV,41398,1005.77,204.98,-1.00*3B
$PENV,41648,1005.78,204.72,-1.00*38
$PENV,41899,1005.79,204.50,-1.00*3B
$GNVTG,,T,,M,0.058,N,0.108,K,D*3C
$GNGGA,170147.00,3259.18614,N,09643.38294,W,2,12,0.57,202.8,M,-25.3,M,,*7C
$PTH,42062*52
$PENV,42149,1005.77,204.80,-1.00*3F
$PENV,42400,1005.77,204.84,-1.00*33
$PENV,42650,1005.79,204.27,-1.00*33
$PENV,42901,1005.79,204.28,-1.00*37
$GNVTG,,T,,M,0.065,N,0.120,K,D*38
$GNGGA,170148.00,3259.18615,N,09643.38291,W,2,12,0.56,202.7,M,-25.3,M,,*79
$PTH,43054*56
$PENV,43151,1005.77,204.82,-1.00*35
$PENV,43401,1005.77,204.85,-1.00*32
$PENV,43652,1005.78,204.69,-1.00*3B
$PENV,43902,1005.78,204.78,-1.00*31
$GNVTG,,T,,M,0.025,N,0.046,K,D*3D
$GNGGA,170149.00,3259.18616,N,09643.38290,W,2,12,0.56,202.7,M,-25.3,M,,*7A
$PTH,44059*5C
$PENV,44153,1005.76,205.18,-1.00*33
$PENV,44403,1005.77,204.83,-1.00*31
$PENV,44654,1005.79,204.45,-1.00*35
$PENV,44904,1005.79,204.37,-1.00*3A
$GNVTG,,T,,M,0.045,N,0.083,K,D*32
$GNGGA,170150.00,3259.18619,N,09643.38288,W,2,12,0.57,202.7,M,-25.3,M,,*75
$PTH,45057*53
$PENV,45154,1005.77,204.93,-1.00*36
$PENV,45405,1005.77,204.89,-1.00*3C
$PENV,45655,1005.77,204.93,-1.00*30
$PENV,45906,1005.77,204.91,-1.00*3B
$GNVTG,,T,,M,0.018,N,0.034,K,D*36
$GNGGA,170151.00,3259.18622,N,09643.38286,W,2,12,0.58,202.7,M,-25.3,M,,*7D
$PTH,46061*55
$PENV,46156,1005.78,204.73,-1.00*36
$PENV,46407,1005.76,205.31,-1.00*3E
$PENV,46657,1005.77,204.88,-1.00*3B
$PENV,46907,1005.78,204.70,-1.00*39
$GNVTG,,T,,M,0.031,N,0.058,K,D*37
$GNGGA,170152.00,3259.18624,N,09643.38285,W,2,12,0.58,202.8,M,-25.3,M,,*74
$PTH,47055*53
$PENV,47158,1005.79,204.37,-1.00*38
$PENV,47408,1005.78,204.78,-1.00*32
$PENV,47659,1005.78,204.60,-1.00*3D
$PENV,47909,1005.78,204.59,-1.00*3D
$GNVTG,,T,,M,0.156,N,0.288,K,D*38
$GNGGA,170153.00,3259.18622,N,09643.38286,W,2,12,0.60,203.1,M,-25.3,M,,*73
$PTH,48060*5A
$PENV,48160,1005.79,204.42,-1.00*3E
$PENV,48410,1005.76,205.12,-1.00*37
$PENV,48661,1005.77,205.05,-1.00*34
$PENV,48911,1005.77,204.92,-1.00*33
$GNVTG,,T,,M,0.129,N,0.238,K,D*3B
$GNGGA,170154.00,3259.18621,N,09643.38290,W,2,12,0.81,203.3,M,-25.3,M,,*7D
$PTH,49056*5E
$PENV,49161,1005.77,204.91,-1.00*3E
$PENV,49412,1005.77,204.94,-1.00*3A
$PENV,49662,1005.78,204.65,-1.00*3E
$PENV,49913,1005.79,204.52,-1.00*32
$GNVTG,,T,,M,0.099,N,0.184,K,D*35
$GNGGA,170155.00,3259.18624,N,09643.38290,W,2,12,0.59,203.4,M,-25.3,M,,*7B
$PTH,50059*59
$PENV,50163,1005.77,204.96,-1.00*33
$PENV,50414,1005.76,205.34,-1.00*3E
$PENV,50664,1005.77,204.98,-1.00*3D
$PENV,50914,1005.77,205.06,-1.00*33
$GNVTG,,T,,M,0.174,N,0.322,K,D*39
$GNGGA,170156.00,3259.18628,N,09643.38288,W,2,12,0.58,203.4,M,-25.3,M,,*7C
$PTH,51053*52
$PENV,51165,1005.77,204.82,-1.00*31
$PENV,51415,1005.76,205.26,-1.00*3D
$PENV,51666,1005.77,204.95,-1.00*33
$PENV,51916,1005.77,205.07,-1.00*31
$GNVTG,,T,,M,0.136,N,0.252,K,D*39
$GNGGA,170157.00,3259.18630,N,09643.38286,W,2,12,0.79,203.5,M,-25.3,M,,*78
$PTH,52053*51
$PENV,52167,1005.78,204.78,-1.00*3A
$PENV,52417,1005.76,205.28,-1.00*32
$PENV,52667,1005.77,205.06,-1.00*3A
$PENV,52918,1005.75,205.38,-1.00*32
$GNVTG,,T,,M,0.160,N,0.297,K,D*33
$GNGGA,170158.00,3259.18628,N,09643.38284,W,2,12,0.67,203.4,M,-25.3,M,,*72
$PTH,53047*55
$PENV,53168,1005.77,204.96,-1.00*3B
$PENV,53419,1005.77,204.99,-1.00*37
$PENV,53669,1005.76,205.18,-1.00*3B
$PENV,53920,1005.76,205.19,-1.00*38
$GNVTG,,T,,M,0.098,N,0.182,K,D*32
$GNGGA,170159.00,3259.18626,N,09643.38283,W,2,12,0.67,203.3,M,-25.3,M,,*7D
$PTH,54047*52
$PENV,54170,1005.76,205.26,-1.00*3E
$PENV,54420,1005.76,205.18,-1.00*33
$PENV,54671,1005.76,205.34,-1.00*3B
$PENV,54921,1005.76,205.28,-1.00*3C
$GNVTG,,T,,M,0.113,N,0.209,K,D*30
$GNGGA,170200.00,3259.18626,N,09643.38279,W,2,12,0.64,203.2,M,-25.3,M,,*75
$PTH,55064*52
$PENV,55172,1005.75,205.37,-1.00*3E
$PENV,55422,1005.77,204.80,-1.00*31
$PENV,55673,1005.76,205.16,-1.00*38
$PENV,55923,1005.75,205.37,-1.00*32
$GNVTG,,T,,M,0.013,N,0.024,K,D*3C
$GNGGA,170201.00,3259.18625,N,09643.38277,W,2,12,0.67,203.3,M,-25.3,M,,*7B
$PTH,56050*56
$PENV,56174,1005.75,205.51,-1.00*3B
$PENV,56424,1005.75,205.52,-1.00*38
$PENV,56674,1005.74,205.84,-1.00*35
$PENV,56925,1005.73,205.96,-1.00*3A
$GNVTG,,T,,M,0.072,N,0.134,K,D*3B
$GNGGA,170202.00,3259.18625,N,09643.38274,W,2,12,0.67,203.2,M,-25.3,M,,*7A
$PTH,57060*54
$PENV,57175,1005.75,205.57,-1.00*3D
$PENV,57426,1005.73,205.91,-1.00*32
$PENV,57676,1005.74,205.83,-1.00*31
$PENV,57927,1005.73,205.96,-1.00*39
$GNVTG,,T,,M,0.215,N,0.398,K,D*3C
$GNGGA,170203.00,3259.18627,N,09643.38273,W,2,12,0.64,203.2,M,-25.3,M,,*7D
$PTH,58048*51
$PENV,58177,1005.73,205.94,-1.00*39
$PENV,58428,1005.74,205.76,-1.00*3D
$PENV,58678,1005.75,205.52,-1.00*3D
$PENV,58928,1005.75,205.41,-1.00*35
$GNVTG,,T,,M,0.206,N,0.381,K,D*36
$GNGGA,170204.00,3259.18630,N,09643.38270,W,2,12,0.67,203.3,M,-25.3,M,,*7D
$PTH,59055*5C
$PENV,59179,1005.74,205.65,-1.00*3F
$PENV,59429,1005.73,206.15,-1.00*3C
$PENV,59680,1005.74,205.63,-1.00*38
$PENV,59930,1005.75,205.51,-1.00*3C
$GNVTG,,T,,M,0.077,N,0.142,K,D*3F
$GNGGA,170205.00,3259.18628,N,09643.38268,W,2,12,0.67,203.4,M,-25.3,M,,*7B
$PTH,60071*50
$PENV,60181,1005.75,205.47,-1.00*33
$PENV,60431,1005.74,205.88,-1.00*3F
$PENV,60682,1005.73,206.02,-1.00*33
$PENV,60932,1005.76,205.34,-1.00*34
$GNVTG,,T,,M,0.094,N,0.174,K,D*37
$GNGGA,170206.00,3259.18625,N,09643.38267,W,2,12,0.72,203.5,M,-25.3,M,,*7F
$PTH,61054*56
$PENV,61182,1005.73,205.90,-1.00*3D
$PENV,61433,1005.74,205.72,-1.00*39
$PENV,61683,1005.73,206.02,-1.00*33
$PENV,61934,1005.75,205.52,-1.00*30
$GNVTG,,T,,M,0.053,N,0.099,K,D*3E
$GNGGA,170207.00,3259.18623,N,09643.38264,W,2,12,0.64,203.4,M,-25.3,M,,*7D
$PTH,62056*57
$PENV,62184,1005.74,205.63,-1.00*33
$PENV,62434,1005.75,205.57,-1.00*3B
$PENV,62685,1005.75,205.52,-1.00*36
$PENV,62935,1005.76,205.30,-1.00*35
$GNVTG,,T,,M,0.097,N,0.179,K,D*39
$GNGGA,170208.00,3259.18624,N,09643.38263,W,2,12,0.64,203.4,M,-25.3,M,,*72
$PTH,63056*56
$PENV,63186,1005.74,205.63,-1.00*30
$PENV,63436,1005.76,205.11,-1.00*39
$PENV,63687,1005.76,205.14,-1.00*34
$PENV,63937,1005.75,205.43,-1.00*31
$GNVTG,,T,,M,0.133,N,0.245,K,D*3A
$GNGGA,170209.00,3259.18627,N,09643.38263,W,2,12,0.67,203.3,M,-25.3,M,,*74
$PTH,64073*56
$PENV,64187,1005.76,205.29,-1.00*3A
$PENV,64438,1005.75,205.48,-1.00*3F
$PENV,64688,1005.76,205.34,-1.00*3E
$PENV,64939,1005.75,205.57,-1.00*3D
$GNVTG,,T,,M,0.023,N,0.043,K,D*3E
$GNGGA,170210.00,3259.18629,N,09643.38263,W,2,12,0.65,203.4,M,-25.3,M,,*77
$PTH,65049*5E
$PENV,65189,1005.75,205.55,-1.00*3D
$PENV,65440,1005.77,205.01,-1.00*3E
$PENV,65690,1005.77,205.03,-1.00*33
$PENV,65941,1005.77,205.04,-1.00*37
$GNVTG,,T,,M,0.028,N,0.052,K,D*35
$GNGGA,170211.00,3259.18631,N,09643.38262,W,2,12,0.64,203.5,M,-25.3,M,,*7E
$PTH,66053*56
$PENV,66191,1005.75,205.37,-1.00*33
$PENV,66441,1005.75,205.42,-1.00*39
$PENV,66692,1005.76,205.24,-1.00*36
$PENV,66942,1005.77,205.01,-1.00*32
$GNVTG,,T,,M,0.110,N,0.204,K,D*3E
$GNGGA,170212.00,3259.18633,N,09643.38259,W,2,12,0.66,203.5,M,-25.3,M,,*75
$PTH,67049*5C
$PENV,67193,1005.76,205.17,-1.00*31
$PENV,67443,1005.76,205.17,-1.00*39
$PENV,67694,1005.75,205.40,-1.00*30
$PENV,67944,1005.76,205.09,-1.00*3C
$GNVTG,,T,,M,0.064,N,0.119,K,D*33
$GNGGA,170213.00,3259.18632,N,09643.38256,W,2,12,0.66,203.5,M,-25.3,M,,*7A
$PTH,68054*5F
$PENV,68194,1005.77,205.05,-1.00*3B
$PENV,68445,1005.75,205.43,-1.00*32
$PENV,68695,1005.77,205.05,-1.00*3D
$PENV,68946,1005.76,205.20,-1.00*3A
$GNVTG,,T,,M,0.221,N,0.409,K,D*34
$GNGGA,170214.00,3259.18634,N,09643.38254,W,2,12,0.72,203.5,M,-25.3,M,,*7C
$PTH,69053*59
$PENV,69196,1005.75,205.35,-1.00*39
$PENV,69447,1005.76,205.27,-1.00*30
$PENV,69697,1005.76,205.15,-1.00*3E
$PENV,69947,1005.77,204.98,-1.00*39
$GNVTG,,T,,M,0.178,N,0.330,K,D*36
$GNGGA,170215.00,3259.18641,N,09643.38248,W,2,12,0.66,203.6,M,-25.3,M,,*74
$PTH,70056*54
$PENV,70198,1005.78,204.75,-1.00*37
$PENV,70448,1005.76,205.25,-1.00*35
$PENV,70699,1005.76,205.16,-1.00*3B
$PENV,70949,1005.78,204.68,-1.00*3F
$GNVTG,,T,,M,0.122,N,0.225,K,D*3C
$GNGGA,170216.00,3259.18644,N,09643.38242,W,2,12,0.77,203.6,M,-25.3,M,,*78
$PTH,71047*55
$PENV,71200,1005.80,203.98,-1.00*37
$PENV,71450,1005.82,203.65,-1.00*34
$PENV,71700,1005.80,204.02,-1.00*36
$PENV,71951,1005.79,204.51,-1.00*3C
$GNVTG,,T,,M,0.123,N,0.228,K,D*30
$GNGGA,170217.00,3259.18645,N,09643.38242,W,2,12,0.82,203.8,M,-25.3,M,,*7C
$PTH,72054*54
$PENV,72201,1005.79,204.26,-1.00*31
$PENV,72452,1005.79,204.48,-1.00*39
$PENV,72702,1005.78,204.75,-1.00*30
$PENV,72953,1005.76,205.26,-1.00*33
$GNVTG,,T,,M,0.098,N,0.181,K,D*31
$GNGGA,170218.00,3259.18646,N,09643.38241,W,2,12,0.63,204.0,M,-25.3,M,,*73
$PTH,73053*52
$PENV,73203,1005.78,204.62,-1.00*33
$PENV,73453,1005.78,204.72,-1.00*31
$PENV,73704,1005.77,204.94,-1.00*37
$PENV,73954,1005.78,204.53,-1.00*38
$GNVTG,,T,,M,0.084,N,0.155,K,D*35
$GNGGA,170219.00,3259.18639,N,09643.38244,W,2,12,0.81,204.2,M,-25.3,M,,*71
$PTH,74055*53
$PENV,74205,1005.78,204.53,-1.00*30
$PENV,74455,1005.77,204.83,-1.00*31
$PENV,74706,1005.76,205.11,-1.00*3F
$PENV,74956,1005.78,204.66,-1.00*3B
$GNVTG,,T,,M,0.106,N,0.197,K,D*30
$GNGGA,170220.00,3259.18635,N,09643.38245,W,2,12,0.75,204.3,M,-25.3,M,,*7C
$PTH,75049*5F
$PENV,75207,1005.78,204.55,-1.00*35
$PENV,75457,1005.77,204.92,-1.00*32
$PENV,75707,1005.78,204.73,-1.00*34
$PENV,75958,1005.78,204.55,-1.00*34
$GNVTG,,T,,M,0.183,N,0.340,K,D*35
$GNGGA,170221.00,3259.18636,N,09643.38239,W,2,12,0.79,204.2,M,-25.3,M,,*78
$PTH,76051*55
$PENV,76208,1005.77,204.81,-1.00*3F
$PENV,76459,1005.77,204.80,-1.00*3C
$PENV,76709,1005.81,203.87,-1.00*33
$PENV,76960,1005.82,203.48,-1.00*32
$GNVTG,,T,,M,0.231,N,0.427,K,D*39
$GNGGA,170222.00,3259.18633,N,09643.38237,W,2,12,0.75,204.2,M,-25.3,M,,*7C
$PTH,77052*57
$PENV,77210,1005.83,203.41,-1.00*37
$PENV,77460,1005.82,203.44,-1.00*32
$PENV,77711,1005.83,203.38,-1.00*3D
$PENV,77961,1005.80,204.00,-1.00*3B
$GNVTG,,T,,M,0.124,N,0.230,K,D*3E
$GNGGA,170223.00,3259.18632,N,09643.38238,W,2,12,0.76,204.1,M,-25.3,M,,*73
$PTH,78041*5A
$PENV,78212,1005.80,203.99,-1.00*3C
$PENV,78462,1005.80,204.14,-1.00*3F
$PENV,78713,1005.81,203.93,-1.00*33
$PENV,78963,1005.79,204.29,-1.00*3B
$GNVTG,,T,,M,0.225,N,0.416,K,D*3E
$GNGGA,170224.00,3259.18636,N,09643.38241,W,2,12,0.78,204.0,M,-25.3,M,,*71
$PTH,79043*59
$PENV,79213,1005.79,204.41,-1.00*38
$PENV,79464,1005.79,204.40,-1.00*3F
$PENV,79714,1005.78,204.68,-1.00*30
$PENV,79965,1005.78,204.70,-1.00*31
$GNVTG,,T,,M,0.123,N,0.228,K,D*30
$GNGGA,170225.00,3259.18636,N,09643.38246,W,2,12,0.80,204.1,M,-25.3,M,,*71
$PTH,80037*5C
$PENV,80215,1005.78,204.57,-1.00*3E
$PENV,80466,1005.78,204.72,-1.00*3B
$PENV,80716,1005.78,204.74,-1.00*39
$PENV,80966,1005.79,204.50,-1.00*37
$GNVTG,,T,,M,0.110,N,0.204,K,D*3E
$GNGGA,170226.00,3259.18634,N,09643.38246,W,2,12,0.67,204.1,M,-25.3,M,,*79
$PTH,81044*59
$PENV,81217,1005.78,204.71,-1.00*39
$PENV,81467,1005.78,204.58,-1.00*33
$PENV,81718,1005.79,204.47,-1.00*37
$PENV,81968,1005.78,204.72,-1.00*39
$GNVTG,,T,,M,0.125,N,0.232,K,D*3D
$GNGGA,170227.00,3259.18631,N,09643.38245,W,2,12,0.68,203.9,M,-25.3,M,,*7E
$PTH,82046*58
$PENV,82219,1005.78,204.76,-1.00*33
$PENV,82469,1005.78,204.66,-1.00*33
$PENV,82719,1005.78,204.61,-1.00*30
$PENV,82970,1005.78,204.53,-1.00*30
$GNVTG,,T,,M,0.059,N,0.108,K,D*3D
$GNGGA,170228.00,3259.18633,N,09643.38246,W,2,12,0.67,203.9,M,-25.3,M,,*7F
$PTH,83058*56
$PENV,83220,1005.79,204.50,-1.00*3D
$PENV,83471,1005.78,204.60,-1.00*3D
$PENV,83721,1005.78,204.72,-1.00*38
$PENV,83972,1005.75,205.38,-1.00*32
$GNVTG,,T,,M,0.045,N,0.083,K,D*32
$GNGGA,170229.00,3259.18633,N,09643.38247,W,2,12,0.67,204.0,M,-25.3,M,,*71
$PTH,84057*5E
$PENV,84222,1005.77,204.91,-1.00*3B
$PENV,84473,1005.79,204.37,-1.00*3B
$PENV,84723,1005.78,204.63,-1.00*3D
$PENV,84973,1005.77,205.04,-1.00*39
$GNVTG,,T,,M,0.138,N,0.255,K,D*30
$GNGGA,170230.00,3259.18623,N,09643.38250,W,2,12,0.72,204.2,M,-25.3,M,,*78
$PTH,85051*59
$PENV,85224,1005.77,204.85,-1.00*39
$PENV,85474,1005.77,204.96,-1.00*38
$PENV,85725,1005.77,204.93,-1.00*3A
$PENV,85975,1005.78,204.57,-1.00*36
$GNVTG,,T,,M,0.190,N,0.351,K,D*37
$GNGGA,170231.00,3259.18614,N,09643.38251,W,2,12,0.69,204.2,M,-25.3,M,,*76
$PTH,86062*5A
$PENV,86226,1005.79,204.31,-1.00*39
$PENV,86476,1005.77,204.88,-1.00*36
$PENV,86726,1005.77,205.04,-1.00*35
$PENV,86977,1005.77,205.04,-1.00*3F
$GNVTG,,T,,M,0.084,N,0.155,K,D*35
$GNGGA,170232.00,3259.18608,N,09643.38253,W,2,12,0.67,204.6,M,-25.3,M,,*70
$PTH,87048*53
$PENV,87227,1005.77,204.83,-1.00*3E
$PENV,87478,1005.77,205.02,-1.00*3A
$PENV,87728,1005.77,205.01,-1.00*3F
$PENV,87979,1005.79,204.52,-1.00*3C
$GNVTG,,T,,M,0.136,N,0.252,K,D*39
$GNGGA,170233.00,3259.18601,N,09643.38254,W,2,12,0.69,204.8,M,-25.3,M,,*7F
$PTH,88053*56
$PENV,88229,1005.77,204.98,-1.00*35
$PENV,88479,1005.77,204.83,-1.00*3C
$PENV,88730,1005.78,204.72,-1.00*33
$PENV,88980,1005.76,205.24,-1.00*3A
$GNVTG,,T,,M,0.142,N,0.263,K,D*38
$GNGGA,170234.00,3259.18583,N,09643.38254,W,2,12,0.71,204.9,M,-25.3,M,,*79
$PTH,89063*54
$PENV,89231,1005.77,205.01,-1.00*3C
$PENV,89481,1005.78,204.67,-1.00*3F
$PENV,89732,1005.78,204.70,-1.00*32
$PENV,89982,1005.76,205.08,-1.00*37
$GNVTG,,T,,M,0.228,N,0.423,K,D*35
$GNGGA,170235.00,3259.18570,N,09643.38252,W,2,12,0.71,204.9,M,-25.3,M,,*72
$PTH,90046*5B
$PENV,90232,1005.77,204.95,-1.00*3B
$PENV,90483,1005.78,204.72,-1.00*31
$PENV,90733,1005.78,204.71,-1.00*3A
$PENV,90984,1005.77,204.82,-1.00*3B
$GNVTG,,T,,M,0.199,N,0.369,K,D*35
$GNGGA,170236.00,3259.18565,N,09643.38249,W,2,12,0.71,204.9,M,-25.3,M,,*7F
$PTH,91051*5C
$PENV,91234,1005.77,204.89,-1.00*31
$PENV,91485,1005.77,204.98,-1.00*3D
$PENV,91735,1005.77,204.89,-1.00*35
$PENV,91985,1005.77,204.96,-1.00*3E
$GNVTG,,T,,M,0.030,N,0.055,K,D*3B
$GNGGA,170237.00,3259.18555,N,09643.38249,W,2,12,0.71,205.0,M,-25.3,M,,*75
$PTH,92052*5C
$PENV,92236,1005.77,205.00,-1.00*30
$PENV,92486,1005.79,204.45,-1.00*33
$PENV,92737,1005.77,204.99,-1.00*35
$PENV,92987,1005.77,204.80,-1.00*38
$GNVTG,,T,,M,0.043,N,0.080,K,D*37
$GNGGA,170238.00,3259.18544,N,09643.38251,W,2,12,0.71,205.1,M,-25.3,M,,*72
$PTH,93047*59
$PENV,93238,1005.77,204.95,-1.00*32
$PENV,93488,1005.77,205.04,-1.00*36
$PENV,93739,1005.78,204.60,-1.00*33
$PENV,93989,1005.78,204.59,-1.00*3C
$GNVTG,,T,,M,0.013,N,0.024,K,D*3C
$GNGGA,170239.00,3259.18534,N,09643.38252,W,2,12,0.68,205.2,M,-25.3,M,,*7C
$PTH,94051*59
$PENV,94239,1005.76,205.28,-1.00*32
$PENV,94490,1005.77,205.03,-1.00*3F
$PENV,94740,1005.77,204.95,-1.00*3F
$PENV,94991,1005.76,205.12,-1.00*32
$GNVTG,,T,,M,0.199,N,0.368,K,D*34
$GNGGA,170240.00,3259.18535,N,09643.38249,W,2,12,0.67,205.1,M,-25.3,M,,*75
$PTH,95054*5D
$PENV,95241,1005.78,204.74,-1.00*3A
$PENV,95492,1005.79,204.50,-1.00*35
$PENV,95742,1005.76,205.11,-1.00*30
$PENV,95993,1005.77,204.96,-1.00*3D
$GNVTG,,T,,M,0.118,N,0.218,K,D*3B
$GNGGA,170241.00,3259.18534,N,09643.38249,W,2,12,0.67,204.9,M,-25.3,M,,*7C
$PTH,96043*58
$PENV,96243,1005.77,204.81,-1.00*3E
$PENV,96493,1005.77,204.88,-1.00*3C
$PENV,96744,1005.76,205.10,-1.00*34
$PENV,96994,1005.76,205.25,-1.00*31
$GNVTG,,T,,M,0.134,N,0.248,K,D*30
$GNGGA,170242.00,3259.18532,N,09643.38248,W,2,12,0.62,204.8,M,-25.3,M,,*7C
$PTH,97065*5D
$PENV,97245,1005.77,204.85,-1.00*3D
$PENV,97495,1005.76,205.17,-1.00*3D
$PENV,97746,1005.76,205.11,-1.00*36
$PENV,97996,1005.77,204.97,-1.00*3B
$GNVTG,,T,,M,0.121,N,0.223,K,D*39
$GNGGA,170243.00,3259.18531,N,09643.38249,W,2,12,0.69,204.8,M,-25.3,M,,*74
$PTH,98055*51
$PENV,98246,1005.75,205.38,-1.00*34
$PENV,98497,1005.76,205.07,-1.00*31
$PENV,98747,1005.76,205.25,-1.00*3F
$PENV,98998,1005.76,205.09,-1.00*3D
$GNVTG,,T,,M,0.041,N,0.076,K,D*3C
$GNGGA,170244.00,3259.18531,N,09643.38251,W,2,12,0.69,204.8,M,-25.3,M,,*7A
$PTH,99041*55
$PENV,99248,1005.76,205.29,-1.00*38
$PENV,99499,1005.77,204.92,-1.00*32
$PENV,99749,1005.76,205.31,-1.00*35
$PENV,99999,1005.76,205.18,-1.00*3D
$GNVTG,,T,,M,0.029,N,0.053,K,D*35
$GNGGA,170245.00,3259.18533,N,09643.38249,W,2,12,0.61,204.8,M,-25.3,M,,*78
$PTH,100049*6C
$PENV,100250,1005.77,205.02,-1.00*08
$PENV,100500,1005.77,204.87,-1.00*06
$PENV,100751,1005.77,204.85,-1.00*02
$PENV,101001,1005.77,205.03,-1.00*0E
$GNVTG,,T,,M,0.171,N,0.316,K,D*3B
$GNGGA,170246.00,3259.18533,N,09643.38244,W,2,12,0.74,204.8,M,-25.3,M,,*72
$PTH,101041*65
$PENV,101252,1005.77,204.79,-1.00*06
$PENV,101502,1005.77,204.87,-1.00*05
$PENV,101753,1005.76,205.17,-1.00*0A
$PENV,102003,1005.76,205.11,-1.00*0D
$GNVTG,,T,,M,0.029,N,0.054,K,D*32
$GNGGA,170247.00,3259.18532,N,09643.38242,W,2,12,0.74,205.0,M,-25.3,M,,*7D
$PTH,102043*64
$PENV,102253,1005.76,205.11,-1.00*0A
$PENV,102504,1005.77,204.99,-1.00*0F
$PENV,102754,1005.77,204.93,-1.00*02
$PENV,103005,1005.77,204.98,-1.00*0B
$GNVTG,,T,,M,0.061,N,0.114,K,D*3B
$GNGGA,170248.00,3259.18534,N,09643.38238,W,2,12,0.62,204.8,M,-25.3,M,,*77
$PTH,103039*68
$PENV,103255,1005.77,205.06,-1.00*0A
$PENV,103506,1005.77,205.03,-1.00*0E
$PENV,103756,1005.75,205.51,-1.00*0C
$PENV,104006,1005.74,205.81,-1.00*05
$GNVTG,,T,,M,0.035,N,0.065,K,D*3D
$GNGGA,170249.00,3259.18541,N,09643.38231,W,2,12,0.69,204.5,M,-25.3,M,,*7B
$PTH,104039*6F
$PENV,104257,1005.75,205.42,-1.00*0D
$PENV,104507,1005.75,205.39,-1.00*03
$PENV,104758,1005.76,205.25,-1.00*05
$PENV,105008,1005.77,204.89,-1.00*00
$GNVTG,,T,,M,0.194,N,0.360,K,D*31
$GNGGA,170250.00,3259.18547,N,09643.38228,W,2,12,0.69,204.4,M,-25.3,M,,*7C
$PTH,105050*61
$PENV,105259,1005.76,205.27,-1.00*02
$PENV,105509,1005.76,205.24,-1.00*03
$PENV,105759,1005.77,204.82,-1.00*08
$PENV,106010,1005.76,205.14,-1.00*0E
$GNVTG,,T,,M,0.128,N,0.237,K,D*35
$GNGGA,170251.00,3259.18548,N,09643.38224,W,2,12,0.69,204.3,M,-25.3,M,,*79
$PTH,106040*63
$PENV,106260,1005.75,205.50,-1.00*08
$PENV,106511,1005.77,204.98,-1.00*0E
$PENV,106761,1005.75,205.48,-1.00*05
$PENV,107012,1005.76,205.19,-1.00*00
$GNVTG,,T,,M,0.102,N,0.189,K,D*3B
$GNGGA,170252.00,3259.18547,N,09643.38222,W,2,12,0.72,204.4,M,-25.3,M,,*7E
$PTH,107047*65
$PENV,107262,1005.76,205.13,-1.00*0F
$PENV,107512,1005.75,205.51,-1.00*0A
$PENV,107763,1005.76,205.29,-1.00*02
$PENV,108013,1005.76,205.11,-1.00*06
$GNVTG,,T,,M,0.097,N,0.180,K,D*3F
$GNGGA,170253.00,3259.18546,N,09643.38220,W,2,12,0.69,204.5,M,-25.3,M,,*77
$PTH,108059*65
$PENV,108264,1005.76,205.24,-1.00*02
$PENV,108514,1005.76,205.17,-1.00*02
$PENV,108765,1005.74,205.63,-1.00*07
$PENV,109015,1005.76,205.19,-1.00*09
$GNVTG,,T,,M,0.212,N,0.392,K,D*31
$GNGGA,170254.00,3259.18553,N,09643.38218,W,2,12,0.68,204.5,M,-25.3,M,,*7E
$PTH,109046*6A
$PENV,109265,1005.75,205.44,-1.00*07
$PENV,109516,1005.76,205.31,-1.00*05
$PENV,109766,1005.76,205.33,-1.00*02
$PENV,110017,1005.75,205.48,-1.00*04
$GNVTG,,T,,M,0.238,N,0.441,K,D*30
$GNGGA,170255.00,3259.18566,N,09643.38211,W,2,12,0.74,204.2,M,-25.3,M,,*7A
$PTH,110050*65
$PENV,110267,1005.76,205.24,-1.00*08
$PENV,110518,1005.76,205.13,-1.00*03
$PENV,110768,1005.76,205.17,-1.00*02
$PENV,111019,1005.76,205.24,-1.00*02
$GNVTG,,T,,M,0.067,N,0.124,K,D*3E
$GNGGA,170256.00,3259.18574,N,09643.38206,W,2,12,0.67,204.1,M,-25.3,M,,*7D
$PTH,111053*67
$PENV,111269,1005.75,205.44,-1.00*02
$PENV,111519,1005.74,205.70,-1.00*04
$PENV,111770,1005.75,205.39,-1.00*05
$PENV,112020,1005.75,205.53,-1.00*08
$GNVTG,,T,,M,0.032,N,0.058,K,D*34
$GNGGA,170257.00,3259.18571,N,09643.38204,W,2,12,0.65,204.2,M,-25.3,M,,*7A
$PTH,112052*65
$PENV,112271,1005.75,205.48,-1.00*04
$PENV,112521,1005.75,205.44,-1.00*0A
$PENV,112772,1005.75,205.59,-1.00*02
$PENV,113022,1005.75,205.35,-1.00*0B
$GNVTG,,T,,M,0.284,N,0.525,K,D*34
$GNGGA,170258.00,3259.18580,N,09643.38198,W,2,12,0.67,203.9,M,-25.3,M,,*73
$PTH,113056*60
$PENV,113272,1005.75,205.38,-1.00*01
$PENV,113523,1005.74,205.88,-1.00*08
$PENV,113773,1005.75,205.52,-1.00*09
$PENV,114024,1005.74,205.72,-1.00*08
$GNVTG,,T,,M,0.046,N,0.085,K,D*37
$GNGGA,170259.00,3259.18587,N,09643.38194,W,2,12,0.67,203.9,M,-25.3,M,,*79
$PTH,114056*67
$PENV,114274,1005.74,205.76,-1.00*0B
$PENV,114525,1005.75,205.62,-1.00*0C
$PENV,114775,1005.75,205.41,-1.00*0A
$PENV,115025,1005.74,205.65,-1.00*0E
$GNVTG,,T,,M,0.103,N,0.191,K,D*33
$GNGGA,170300.00,3259.18595,N,09643.38187,W,2,12,0.70,203.8,M,-25.3,M,,*72
$PTH,115060*63
$PENV,115276,1005.74,205.67,-1.00*08
$PENV,115526,1005.74,205.84,-1.00*07
$PENV,115777,1005.74,205.70,-1.00*0A
$PENV,116027,1005.75,205.52,-1.00*0A
$GNVTG,,T,,M,0.048,N,0.088,K,D*34
$GNGGA,170301.00,3259.18601,N,09643.38182,W,2,12,0.69,203.8,M,-25.3,M,,*70
$PTH,116059*6A
$PENV,116278,1005.74,205.78,-1.00*0B
$PENV,116528,1005.73,206.09,-1.00*0B
$PENV,116778,1005.74,205.87,-1.00*0E
$PENV,117029,1005.74,205.68,-1.00*0D
$GNVTG,,T,,M,0.054,N,0.101,K,D*39
$GNGGA,170302.00,3259.18610,N,09643.38179,W,2,12,0.69,203.6,M,-25.3,M,,*79
$PTH,117060*61
$PENV,117279,1005.74,205.77,-1.00*04
$PENV,117530,1005.73,206.14,-1.00*0F
$PENV,117780,1005.74,205.73,-1.00*03
$PENV,118031,1005.74,205.63,-1.00*00
$GNVTG,326.49,T,,M,0.344,N,0.637,K,D*2D
$GNGGA,170303.00,3259.18620,N,09643.38174,W,2,12,0.68,203.6,M,-25.3,M,,*77
$PTH,118052*6F
$PENV,118281,1005.74,205.65,-1.00*0F
$PENV,118531,1005.75,205.42,-1.00*07
$PENV,118782,1005.74,205.81,-1.00*03
$PENV,119032,1005.74,205.67,-1.00*06
$GNVTG,,T,,M,0.076,N,0.141,K,D*3D
$GNGGA,170304.00,3259.18632,N,09643.38167,W,2,12,0.70,203.3,M,-25.3,M,,*7D
$PTH,119052*6E
$PENV,119283,1005.73,206.04,-1.00*0F
$PENV,119533,1005.73,206.02,-1.00*05
$PENV,119784,1005.75,205.60,-1.00*0A
$PENV,120034,1005.74,205.84,-1.00*07
$GNVTG,,T,,M,0.073,N,0.135,K,D*3B
$GNGGA,170305.00,3259.18639,N,09643.38164,W,2,12,0.67,203.2,M,-25.3,M,,*73
$PTH,120050*66
$PENV,120285,1005.74,205.78,-1.00*0C
$PENV,120535,1005.73,205.91,-1.00*00
$PENV,120785,1005.73,205.98,-1.00*00
$PENV,121036,1005.74,205.83,-1.00*03
$GNVTG,,T,,M,0.070,N,0.130,K,D*3D
$GNGGA,170306.00,3259.18645,N,09643.38158,W,2,12,0.63,202.9,M,-25.3,M,,*7A
$PTH,121068*6C
$PENV,121286,1005.74,205.63,-1.00*04
$PENV,121537,1005.74,205.76,-1.00*0D
$PENV,121787,1005.74,205.88,-1.00*05
$PENV,122038,1005.74,205.80,-1.00*0D
$GNVTG,,T,,M,0.273,N,0.506,K,D*3D
$GNGGA,170307.00,3259.18654,N,09643.38152,W,2,12,0.67,202.6,M,-25.3,M,,*7A
$PTH,122052*66
$PENV,122288,1005.74,205.63,-1.00*09
$PENV,122538,1005.75,205.45,-1.00*00
$PENV,122789,1005.75,205.54,-1.00*08
$PENV,123039,1005.72,206.22,-1.00*00
$GNVTG,,T,,M,0.154,N,0.285,K,D*37
$GNGGA,170308.00,3259.18661,N,09643.38151,W,2,12,0.67,202.5,M,-25.3,M,,*73
$PTH,123052*67
$PENV,123290,1005.74,205.67,-1.00*05
$PENV,123540,1005.73,206.15,-1.00*0E
$PENV,123791,1005.75,205.55,-1.00*01
$PENV,124041,1005.73,205.99,-1.00*0A
$GNVTG,,T,,M,0.108,N,0.200,K,D*33
$GNGGA,170309.00,3259.18666,N,09643.38149,W,2,12,0.67,202.2,M,-25.3,M,,*7B
$PTH,124058*6A
$PENV,124291,1005.74,205.83,-1.00*09
$PENV,124542,1005.73,205.90,-1.00*05
$PENV,124792,1005.74,205.80,-1.00*0C
$PENV,125043,1005.74,205.79,-1.00*00
$GNVTG,,T,,M,0.267,N,0.494,K,D*32
$GNGGA,170310.00,3259.18675,N,09643.38145,W,2,12,0.67,202.0,M,-25.3,M,,*7F
$PTH,125049*6B
$PENV,125293,1005.74,205.81,-1.00*08
$PENV,125544,1005.73,205.94,-1.00*06
$PENV,125794,1005.74,205.64,-1.00*01
$PENV,126044,1005.75,205.37,-1.00*0F
$GNVTG,,T,,M,0.181,N,0.336,K,D*36
$GNGGA,170311.00,3259.18683,N,09643.38147,W,2,12,0.67,201.9,M,-25.3,M,,*7F
$PTH,126048*69
$PENV,126295,1005.76,205.32,-1.00*07
$PENV,126545,1005.75,205.48,-1.00*03
$PENV,126796,1005.74,205.75,-1.00*00
$PENV,127046,1005.74,205.65,-1.00*0A
$GNVTG,,T,,M,0.072,N,0.133,K,D*3C
$GNGGA,170312.00,3259.18689,N,09643.38148,W,2,12,0.67,202.0,M,-25.3,M,,*73
$PTH,127054*65
$PENV,127297,1005.74,205.70,-1.00*00
$PENV,127547,1005.75,205.46,-1.00*0E
$PENV,127798,1005.74,205.68,-1.00*03
$GNVTG,,T,,M,0.159,N,0.295,K,D*3B
$GNGGA,170313.00,3259.18689,N,09643.38145,W,2,12,0.65,201.9,M,-25.3,M,,*77
$PTH,128039*61
$PENV,128048,1005.75,205.36,-1.00*0C
$PENV,128298,1005.75,205.61,-1.00*01
$PENV,128549,1005.75,205.39,-1.00*07
$PENV,128799,1005.75,205.56,-1.00*01
$GNVTG,,T,,M,0.147,N,0.273,K,D*3C
$GNGGA,170314.00,3259.18689,N,09643.38141,W,2,12,0.69,201.9,M,-25.3,M,,*78
$PTH,129043*6D
$PENV,129050,1005.75,205.55,-1.00*01
$PENV,129300,1005.73,206.01,-1.00*03
$PENV,129551,1005.74,205.65,-1.00*07
$PENV,129801,1005.74,205.84,-1.00*00
$GNVTG,,T,,M,0.268,N,0.496,K,D*3F
$GNGGA,170315.00,3259.18688,N,09643.38136,W,2,12,0.65,201.8,M,-25.3,M,,*75
$PTH,130049*6F
$PENV,130051,1005.75,205.56,-1.00*0B
$PENV,130302,1005.75,205.37,-1.00*09
$PENV,130552,1005.75,205.53,-1.00*08
$PENV,130803,1005.74,205.63,-1.00*03
$GNVTG,,T,,M,0.078,N,0.144,K,D*36
$GNGGA,170316.00,3259.18689,N,09643.38135,W,2,12,0.74,201.7,M,-25.3,M,,*7B
$PTH,131040*67
$PENV,131053,1005.74,205.67,-1.00*0B
$PENV,131304,1005.74,205.85,-1.00*06
$PENV,131554,1005.73,206.15,-1.00*08
$PENV,131804,1005.72,206.19,-1.00*0D
$GNVTG,,T,,M,0.120,N,0.221,K,D*3A
$GNGGA,170317.00,3259.18694,N,09643.38133,W,2,12,0.74,201.7,M,-25.3,M,,*70
$PTH,132052*67
$PENV,132055,1005.73,206.15,-1.00*0F
$PENV,132305,1005.73,205.93,-1.00*04
$PENV,132556,1005.73,205.95,-1.00*02
$PENV,132806,1005.75,205.58,-1.00*0D
$GNVTG,,T,,M,0.273,N,0.506,K,D*3D
$PENV,133057,1005.74,205.83,-1.00*07
$GNGGA,170318.00,3259.18701,N,09643.38131,W,2,12,0.70,201.6,M,-25.3,M,,*75
$PTH,133057*63
$PENV,133307,1005.73,205.90,-1.00*04
$PENV,133558,1005.73,206.13,-1.00*00
$PENV,133808,1005.72,206.17,-1.00*0D
$GNVTG,,T,,M,0.045,N,0.083,K,D*32
$GNGGA,170319.00,3259.18706,N,09643.38132,W,2,12,0.70,201.6,M,-25.3,M,,*70
$PTH,134048*6A
$PENV,134058,1005.74,205.89,-1.00*05
$PENV,134309,1005.74,205.76,-1.00*02
$PENV,134559,1005.75,205.61,-1.00*06
$PENV,134810,1005.74,205.89,-1.00*01
$GNVTG,,T,,M,0.105,N,0.194,K,D*30
$GNGGA,170320.00,3259.18709,N,09643.38129,W,2,12,0.74,201.2,M,-25.3,M,,*7F
$PTH,135052*60
$PENV,135060,1005.73,206.13,-1.00*08
$PENV,135311,1005.74,205.86,-1.00*05
$PENV,135561,1005.73,205.95,-1.00*01
$PENV,135811,1005.73,206.01,-1.00*05
$GNVTG,,T,,M,0.108,N,0.199,K,D*30
$PENV,136062,1005.72,206.23,-1.00*0B
$GNGGA,170321.00,3259.18710,N,09643.38125,W,2,12,0.71,200.9,M,-25.3,M,,*75
$PTH,136063*61
$PENV,136312,1005.74,205.88,-1.00*0B
$PENV,136563,1005.72,206.28,-1.00*04
$PENV,136813,1005.71,206.53,-1.00*01
$GNVTG,,T,,M,0.105,N,0.194,K,D*30
$GNGGA,170322.00,3259.18698,N,09643.38148,W,2,12,0.69,201.8,M,-25.3,M,,*75
$PTH,137048*69
$PENV,137064,1005.72,206.41,-1.00*08
$PENV,137314,1005.72,206.43,-1.00*0E
$PENV,137564,1005.72,206.23,-1.00*09
$PENV,137815,1005.73,206.09,-1.00*0B
$GNVTG,,T,,M,0.312,N,0.578,K,D*32
$GNGGA,170323.00,3259.18688,N,09643.38162,W,2,12,0.69,202.3,M,-25.3,M,,*75
$PTH,138050*6F
$PENV,138065,1005.72,206.35,-1.00*05
$PENV,138316,1005.71,206.52,-1.00*00
$PENV,138566,1005.72,206.30,-1.00*06
$PENV,138817,1005.72,206.28,-1.00*04
$GNVTG,,T,,M,0.258,N,0.478,K,D*3C
$GNGGA,170324.00,3259.18678,N,09643.38173,W,2,12,0.61,202.8,M,-25.3,M,,*7E
$PTH,139057*69
$PENV,139067,1005.71,206.58,-1.00*0E
$PENV,139317,1005.72,206.44,-1.00*04
$PENV,139568,1005.71,206.49,-1.00*04
$PENV,139818,1005.72,206.28,-1.00*0A
$GNVTG,,T,,M,0.140,N,0.260,K,D*39
$GNGGA,170325.00,3259.18674,N,09643.38179,W,2,12,0.67,203.1,M,-25.3,M,,*77
$PTH,140048*69
$PENV,140069,1005.71,206.56,-1.00*00
$PENV,140319,1005.73,206.15,-1.00*01
$PENV,140570,1005.72,206.25,-1.00*0A
$PENV,140820,1005.72,206.33,-1.00*05
$GNVTG,,T,,M,0.271,N,0.502,K,D*3B
$GNGGA,170326.00,3259.18669,N,09643.38188,W,2,12,0.67,203.8,M,-25.3,M,,*7F
$PTH,141054*65
$PENV,141070,1005.71,206.48,-1.00*06
$PENV,141321,1005.72,206.30,-1.00*0D
$PENV,141571,1005.72,206.32,-1.00*0C
$PENV,141822,1005.72,206.28,-1.00*0C
$GNVTG,,T,,M,0.037,N,0.068,K,D*32
$GNGGA,170327.00,3259.18666,N,09643.38195,W,2,12,0.63,204.2,M,-25.3,M,,*74
$PTH,142054*66
$PENV,142072,1005.71,206.52,-1.00*0C
$PENV,142323,1005.73,206.11,-1.00*0E
$PENV,142573,1005.72,206.40,-1.00*08
$PENV,142823,1005.72,206.35,-1.00*02
$GNVTG,,T,,M,0.034,N,0.063,K,D*3A
$GNGGA,170328.00,3259.18666,N,09643.38201,W,2,12,0.64,204.6,M,-25.3,M,,*76
$PTH,143054*67
$PENV,143074,1005.72,206.19,-1.00*07
$PENV,143324,1005.73,206.10,-1.00*09
$PENV,143575,1005.72,206.27,-1.00*0E
$PENV,143825,1005.72,206.22,-1.00*03
$GNVTG,348.22,T,,M,0.338,N,0.627,K,D*22
$GNGGA,170329.00,3259.18671,N,09643.38203,W,2,12,0.64,204.7,M,-25.3,M,,*72
$PTH,144049*6C
$PENV,144076,1005.72,206.19,-1.00*02
$PENV,144326,1005.73,206.07,-1.00*0A
$PENV,144576,1005.71,206.48,-1.00*00
$PENV,144827,1005.71,206.47,-1.00*06
$GNVTG,,T,,M,0.168,N,0.312,K,D*37
$GNGGA,170330.00,3259.18681,N,09643.38203,W,2,12,0.62,204.9,M,-25.3,M,,*7D
$PTH,145064*62
$PENV,145077,1005.73,205.91,-1.00*00
$PENV,145328,1005.71,206.50,-1.00*05
$PENV,145578,1005.73,206.09,-1.00*08
$PENV,145829,1005.73,206.03,-1.00*0B
$GNVTG,,T,,M,0.190,N,0.352,K,D*34
$GNGGA,170331.00,3259.18689,N,09643.38202,W,2,12,0.62,204.8,M,-25.3,M,,*74
$PTH,146056*60
$PENV,146079,1005.73,205.99,-1.00*05
$PENV,146329,1005.73,205.99,-1.00*03
$PENV,146580,1005.73,206.04,-1.00*01
$PENV,146830,1005.73,206.02,-1.00*01
$GNVTG,,T,,M,0.019,N,0.036,K,D*35
$GNGGA,170332.00,3259.18694,N,09643.38198,W,2,12,0.67,204.7,M,-25.3,M,,*71
$PTH,147064*60
$PENV,147081,1005.74,205.82,-1.00*0E
$PENV,147331,1005.73,205.99,-1.00*0B
$PENV,147582,1005.72,206.39,-1.00*0D
$PENV,147832,1005.73,205.99,-1.00*03
$GNVTG,,T,,M,0.250,N,0.462,K,D*3F
$GNGGA,170333.00,3259.18696,N,09643.38203,W,2,12,0.67,204.9,M,-25.3,M,,*7D
$PTH,148052*6A
$PENV,148083,1005.73,206.04,-1.00*09
$PENV,148333,1005.73,206.16,-1.00*02
$PENV,148583,1005.72,206.43,-1.00*0E
$PENV,148834,1005.71,206.47,-1.00*08
$GNVTG,,T,,M,0.148,N,0.273,K,D*33
$GNGGA,170334.00,3259.18699,N,09643.38199,W,2,12,0.67,204.7,M,-25.3,M,,*7B
$PTH,149051*68
$PENV,149084,1005.72,206.42,-1.00*0C
$PENV,149335,1005.70,206.80,-1.00*09
$PENV,149585,1005.72,206.23,-1.00*0F
$PENV,149836,1005.74,205.84,-1.00*02
$GNVTG,,T,,M,0.176,N,0.325,K,D*3C
$GNGGA,170335.00,3259.18702,N,09643.38202,W,2,12,0.65,204.6,M,-25.3,M,,*7B
$PTH,150044*64
$PENV,150086,1005.74,205.78,-1.00*0A
$PENV,150337,1005.72,206.33,-1.00*09
$PENV,150587,1005.73,206.13,-1.00*07
$PENV,150837,1005.72,206.37,-1.00*06
$GNVTG,,T,,M,0.094,N,0.174,K,D*37
$GNGGA,170336.00,3259.18706,N,09643.38201,W,2,12,0.66,204.6,M,-25.3,M,,*7C
$PTH,151047*66
$PENV,151088,1005.72,206.27,-1.00*0A
$PENV,151338,1005.72,206.22,-1.00*07
$PENV,151589,1005.72,206.39,-1.00*01
$PENV,151839,1005.71,206.50,-1.00*0B
$GNVTG,,T,,M,0.185,N,0.343,K,D*30
$GNGGA,170337.00,3259.18712,N,09643.38200,W,2,12,0.62,204.6,M,-25.3,M,,*7D
$PTH,152038*6D
$PENV,152090,1005.72,206.35,-1.00*03
$PENV,152340,1005.72,206.30,-1.00*08
$PENV,152591,1005.73,206.09,-1.00*09
$PENV,152841,1005.73,206.03,-1.00*03
$GNVTG,,T,,M,0.281,N,0.520,K,D*34
$GNGGA,170338.00,3259.18716,N,09643.38197,W,2,12,0.62,204.8,M,-25.3,M,,*75
$PTH,153038*6C
$PENV,153091,1005.73,205.95,-1.00*0B
$PENV,153342,1005.72,206.28,-1.00*02
$PENV,153592,1005.72,206.24,-1.00*05
$PENV,153843,1005.72,206.24,-1.00*04
$GNVTG,,T,,M,0.128,N,0.237,K,D*35
$GNGGA,170339.00,3259.18719,N,09643.38201,W,2,12,0.61,205.2,M,-25.3,M,,*7F
$PTH,154041*65
$PENV,154093,1005.73,206.06,-1.00*07
$PENV,154344,1005.73,206.09,-1.00*01
$PENV,154594,1005.72,206.36,-1.00*07
$PENV,154844,1005.73,206.05,-1.00*06
$GNVTG,,T,,M,0.162,N,0.299,K,D*3F
$GNGGA,170340.00,3259.18727,N,09643.38204,W,2,12,0.61,205.4,M,-25.3,M,,*7F
$PTH,155051*65
$PENV,155095,1005.73,206.09,-1.00*0F
$PENV,155345,1005.72,206.29,-1.00*02
$PENV,155596,1005.73,205.98,-1.00*02
$PENV,155846,1005.74,205.81,-1.00*0D
$GNVTG,,T,,M,0.169,N,0.313,K,D*37
$GNGGA,170341.00,3259.18736,N,09643.38204,W,2,12,0.65,205.5,M,-25.3,M,,*7B
$PTH,156051*66
$PENV,156097,1005.73,205.90,-1.00*0D
$PENV,156347,1005.73,206.00,-1.00*09
$PENV,156598,1005.73,206.01,-1.00*0C
$PENV,156848,1005.73,206.14,-1.00*08
$GNVTG,,T,,M,0.331,N,0.613,K,D*3D
$GNGGA,170342.00,3259.18745,N,09643.38200,W,2,12,0.61,205.6,M,-25.3,M,,*7F
$PTH,157053*65
$PENV,157098,1005.72,206.33,-1.00*08
$PENV,157349,1005.72,206.18,-1.00*0E
$PENV,157599,1005.72,206.24,-1.00*0A
$PENV,157850,1005.70,206.73,-1.00*02
$GNVTG,,T,,M,0.139,N,0.258,K,D*3C
$GNGGA,170343.00,3259.18750,N,09643.38198,W,2,12,0.65,205.8,M,-25.3,M,,*72
$PTH,158047*6F
$PENV,158100,1005.72,206.19,-1.00*0F
$PENV,158351,1005.71,206.50,-1.00*07
$PENV,158601,1005.72,206.18,-1.00*08
$PENV,158851,1005.74,205.76,-1.00*0E
$GNVTG,,T,,M,0.177,N,0.328,K,D*30
$GNGGA,170344.00,3259.18752,N,09643.38202,W,2,12,0.65,205.7,M,-25.3,M,,*78
$PTH,159049*60
$PENV,159102,1005.73,206.02,-1.00*07
$PENV,159352,1005.73,205.91,-1.00*09
$PENV,159603,1005.72,206.32,-1.00*03
$PENV,159853,1005.73,205.92,-1.00*00
$GNVTG,,T,,M,0.148,N,0.274,K,D*34
$GNGGA,170345.00,3259.18756,N,09643.38203,W,2,12,0.63,205.5,M,-25.3,M,,*78
$PTH,160052*60
$PENV,160104,1005.74,205.76,-1.00*0C
$PENV,160354,1005.74,205.81,-1.00*03
$PENV,160605,1005.73,205.94,-1.00*01
$PENV,160855,1005.73,206.09,-1.00*0D
$GNVTG,,T,,M,0.033,N,0.062,K,D*3C
$GNGGA,170346.00,3259.18755,N,09643.38214,W,2,12,0.60,205.8,M,-25.3,M,,*70
$PTH,161055*66
$PENV,161105,1005.72,206.27,-1.00*0D
$PENV,161356,1005.71,206.47,-1.00*0C
$PENV,161606,1005.71,206.63,-1.00*0A
$PENV,161857,1005.72,206.34,-1.00*01
$GNVTG,,T,,M,0.229,N,0.424,K,D*33
$GNGGA,170347.00,3259.18750,N,09643.38226,W,2,12,0.64,206.2,M,-25.3,M,,*78
$PTH,162054*64
$PENV,162107,1005.71,206.46,-1.00*08
$PENV,162358,1005.72,206.38,-1.00*0A
$PENV,162608,1005.71,206.47,-1.00*01
$PENV,162859,1005.73,206.12,-1.00*09
$GNVTG,,T,,M,0.219,N,0.406,K,D*30
$GNGGA,170348.00,3259.18749,N,09643.38242,W,2,12,0.52,206.8,M,-25.3,M,,*72
$PTH,163048*68
$PENV,163109,1005.70,206.74,-1.00*07
$PENV,163360,1005.71,206.50,-1.00*0D
$PENV,163610,1005.71,206.59,-1.00*06
$PENV,163860,1005.71,206.68,-1.00*0D
$GNVTG,,T,,M,0.113,N,0.209,K,D*30
$GNGGA,170349.00,3259.18750,N,09643.38255,W,2,12,0.59,207.1,M,-25.3,M,,*7E
$PTH,164055*63
$PENV,164111,1005.71,206.61,-1.00*0C
$PENV,164361,1005.72,206.33,-1.00*0D
$PENV,164612,1005.73,205.96,-1.00*01
$PENV,164862,1005.71,206.51,-1.00*02
$GNVTG,,T,,M,0.111,N,0.206,K,D*3D
$GNGGA,170350.00,3259.18747,N,09643.38270,W,2,12,0.63,207.6,M,-25.3,M,,*79
$PTH,165048*6E
$PENV,165113,1005.73,206.15,-1.00*0E
$PENV,165363,1005.71,206.68,-1.00*03
$PENV,165614,1005.71,206.49,-1.00*05
$PENV,165864,1005.72,206.28,-1.00*08
$GNVTG,,T,,M,0.206,N,0.382,K,D*35
$GNGGA,170351.00,3259.18752,N,09643.38275,W,2,12,0.60,207.7,M,-25.3,M,,*7B
$PTH,166050*64
$PENV,166114,1005.72,206.28,-1.00*05
$PENV,166365,1005.72,206.43,-1.00*0C
$PENV,166615,1005.71,206.45,-1.00*0B
$PENV,166866,1005.71,206.63,-1.00*05
$GNVTG,,T,,M,0.166,N,0.308,K,D*32
$GNGGA,170352.00,3259.18754,N,09643.38277,W,2,12,0.68,207.8,M,-25.3,M,,*7B
$PTH,167050*65
$PENV,167116,1005.72,206.22,-1.00*0C
$PENV,167367,1005.71,206.50,-1.00*0E
$PENV,167617,1005.73,206.14,-1.00*0E
$PENV,167868,1005.72,206.21,-1.00*0F
$GNVTG,,T,,M,0.106,N,0.197,K,D*30
$GNGGA,170353.00,3259.18752,N,09643.38280,W,2,12,0.66,208.0,M,-25.3,M,,*7D
$PTH,168050*6A
$PENV,168118,1005.72,206.24,-1.00*0B
$PENV,168369,1005.72,206.42,-1.00*0F
$PENV,168619,1005.72,206.40,-1.00*0F
$PENV,168869,1005.72,206.39,-1.00*08
$GNVTG,,T,,M,0.160,N,0.297,K,D*33
$GNGGA,170354.00,3259.18755,N,09643.38284,W,2,12,0.64,208.1,M,-25.3,M,,*7A
$PTH,169052*69
$PENV,169120,1005.72,206.28,-1.00*0D
$PENV,169370,1005.74,205.89,-1.00*04
$PENV,169621,1005.72,206.32,-1.00*00
$PENV,169871,1005.71,206.48,-1.00*05
$GNVTG,,T,,M,0.121,N,0.225,K,D*3F
$GNGGA,170355.00,3259.18758,N,09643.38293,W,2,12,0.61,208.3,M,-25.3,M,,*77
$PTH,170056*65
$PENV,170122,1005.73,206.13,-1.00*0E
$PENV,170372,1005.72,206.42,-1.00*0C
$PENV,170623,1005.72,206.28,-1.00*01
$PENV,170873,1005.72,206.25,-1.00*07
$GNVTG,,T,,M,0.121,N,0.225,K,D*3F
$GNGGA,170356.00,3259.18761,N,09643.38301,W,2,12,0.59,208.4,M,-25.3,M,,*78
$PTH,171046*65
$PENV,171123,1005.70,206.78,-1.00*00
$PENV,171374,1005.71,206.50,-1.00*0B
$PENV,171624,1005.73,206.09,-1.00*05
$PENV,171875,1005.72,206.27,-1.00*02
$GNVTG,,T,,M,0.281,N,0.521,K,D*35
$GNGGA,170357.00,3259.18760,N,09643.38306,W,2,12,0.63,208.4,M,-25.3,M,,*76
$PTH,172051*60
$PENV,172125,1005.74,205.86,-1.00*03
$PENV,172376,1005.73,206.04,-1.00*09
$PENV,172626,1005.72,206.43,-1.00*0B
$PENV,172877,1005.72,206.18,-1.00*0F
$GNVTG,,T,,M,0.083,N,0.153,K,D*34
$GNGGA,170358.00,3259.18757,N,09643.38311,W,2,12,0.59,208.6,M,-25.3,M,,*70
$PTH,173050*60
$PENV,173127,1005.73,206.11,-1.00*0A
$PENV,173377,1005.72,206.29,-1.00*07
$PENV,173628,1005.74,205.88,-1.00*06
$PENV,173878,1005.72,206.28,-1.00*02
$GNVTG,,T,,M,0.187,N,0.346,K,D*37
$GNGGA,170359.00,3259.18761,N,09643.38315,W,2,12,0.59,208.5,M,-25.3,M,,*73
$PTH,174048*6E
$PENV,174129,1005.73,205.97,-1.00*0E
$PENV,174379,1005.73,206.06,-1.00*02
$PENV,174630,1005.72,206.22,-1.00*0D
$PENV,174880,1005.72,206.38,-1.00*03
$GNVTG,,T,,M,0.176,N,0.326,K,D*3F
$GNGGA,170400.00,3259.18762,N,09643.38324,W,2,12,0.53,208.6,M,-25.3,M,,*70
$PTH,175042*65
$PENV,175131,1005.72,206.39,-1.00*00
$PENV,175381,1005.74,205.89,-1.00*07
$PENV,175632,1005.72,206.33,-1.00*0E
$PENV,175882,1005.72,206.23,-1.00*0A
$GNVTG,,T,,M,0.166,N,0.307,K,D*3D
$GNGGA,170401.00,3259.18766,N,09643.38329,W,2,12,0.59,208.5,M,-25.3,M,,*71
$PTH,176048*6C
$PENV,176132,1005.72,206.43,-1.00*0D
$PENV,176383,1005.72,206.25,-1.00*05
$PENV,176633,1005.73,205.96,-1.00*01
$PENV,176884,1005.73,206.11,-1.00*0F
$GNVTG,,T,,M,0.274,N,0.508,K,D*34
$GNGGA,170402.00,3259.18774,N,09643.38335,W,2,12,0.61,208.5,M,-25.3,M,,*77
$PTH,177037*65
$PENV,177134,1005.74,205.76,-1.00*09
$PENV,177385,1005.73,206.00,-1.00*04
$PENV,177635,1005.72,206.27,-1.00*0E
$PENV,177886,1005.72,206.35,-1.00*0B
$GNVTG,,T,,M,0.134,N,0.249,K,D*31
$GNGGA,170403.00,3259.18785,N,09643.38328,W,2,12,0.56,208.0,M,-25.3,M,,*75
$PTH,178045*6F
$PENV,178136,1005.73,205.94,-1.00*0F
$PENV,178386,1005.74,205.75,-1.00*0E
$PENV,178637,1005.75,205.51,-1.00*06
$PENV,178887,1005.73,205.96,-1.00*0E
$GNVTG,,T,,M,0.194,N,0.360,K,D*31
$GNGGA,170404.00,3259.18791,N,09643.38333,W,2,12,0.68,207.8,M,-25.3,M,,*77
$PTH,179050*6A
$PENV,179138,1005.74,205.76,-1.00*0B
$PENV,179388,1005.74,205.78,-1.00*0C
$PENV,179639,1005.74,205.75,-1.00*0E
$PENV,179889,1005.73,205.99,-1.00*0E
$GNVTG,,T,,M,0.251,N,0.464,K,D*38
$GNGGA,170405.00,3259.18792,N,09643.38339,W,2,12,0.67,208.0,M,-25.3,M,,*77
$PTH,180047*6A
$PENV,180140,1005.72,206.22,-1.00*06
$PENV,180390,1005.72,206.17,-1.00*0F
$PENV,180641,1005.73,206.02,-1.00*03
$PENV,180891,1005.73,206.02,-1.00*00
$GNVTG,,T,,M,0.179,N,0.331,K,D*36
$GNGGA,170406.00,3259.18795,N,09643.38336,W,2,12,0.69,207.8,M,-25.3,M,,*75
$PTH,181049*65
$PENV,181141,1005.73,206.14,-1.00*02
$PENV,181392,1005.73,206.00,-1.00*0B
$PENV,181642,1005.71,206.47,-1.00*02
$PENV,181893,1005.73,205.89,-1.00*03
$GNVTG,,T,,M,0.197,N,0.365,K,D*37
$GNGGA,170407.00,3259.18799,N,09643.38337,W,2,12,0.68,207.8,M,-25.3,M,,*78
$PTH,182061*6C
$PENV,182143,1005.72,206.19,-1.00*0F
$PENV,182394,1005.73,205.99,-1.00*0D
$PENV,182644,1005.72,206.22,-1.00*07
$PENV,182895,1005.72,206.22,-1.00*05
$GNVTG,,T,,M,0.068,N,0.127,K,D*32
$GNGGA,170408.00,3259.18802,N,09643.38340,W,2,12,0.66,207.8,M,-25.3,M,,*74
$PTH,183044*6A
$PENV,183145,1005.72,206.28,-1.00*0A
$PENV,183395,1005.73,205.96,-1.00*02
$PENV,183646,1005.73,205.99,-1.00*06
$PENV,183896,1005.73,206.11,-1.00*06
$GNVTG,,T,,M,0.242,N,0.448,K,D*34
$GNGGA,170409.00,3259.18809,N,09643.38342,W,2,12,0.62,207.7,M,-25.3,M,,*77
$PTH,184050*68
$PENV,184147,1005.71,206.70,-1.00*01
$PENV,184397,1005.71,206.59,-1.00*05
$PENV,184648,1005.72,206.28,-1.00*07
$PENV,184898,1005.72,206.20,-1.00*0C
$GNVTG,,T,,M,0.044,N,0.082,K,D*32
$GNGGA,170410.00,3259.18816,N,09643.38340,W,2,12,0.66,207.4,M,-25.3,M,,*74
$PTH,185049*61
$PENV,185149,1005.73,205.93,-1.00*02
$PENV,185399,1005.72,206.28,-1.00*0F
$PENV,185650,1005.72,206.24,-1.00*03
$PENV,185900,1005.72,206.27,-1.00*0A
$GNVTG,,T,,M,0.203,N,0.376,K,D*3B
$GNGGA,170411.00,3259.18819,N,09643.38342,W,2,12,0.66,207.3,M,-25.3,M,,*7F
$PTH,186044*6F
$PENV,186151,1005.73,206.04,-1.00*05
$PENV,186401,1005.71,206.61,-1.00*04
$PENV,186651,1005.72,206.42,-1.00*01
$PENV,186902,1005.72,206.19,-1.00*06
$GNVTG,,T,,M,0.160,N,0.297,K,D*33
$GNGGA,170412.00,3259.18824,N,09643.38341,W,2,12,0.64,207.4,M,-25.3,M,,*74
$PTH,187050*6B
$PENV,187152,1005.71,206.49,-1.00*0C
$PENV,187403,1005.72,206.40,-1.00*07
$PENV,187653,1005.71,206.51,-1.00*03
$PENV,187904,1005.72,206.20,-1.00*0B
$GNVTG,,T,,M,0.252,N,0.467,K,D*38
$GNGGA,170413.00,3259.18827,N,09643.38348,W,2,12,0.71,207.6,M,-25.3,M,,*79
$PTH,188050*64
$PENV,188154,1005.72,206.41,-1.00*0E
$PENV,188405,1005.72,206.25,-1.00*0D
$PENV,188655,1005.72,206.22,-1.00*0D
$PENV,188906,1005.71,206.45,-1.00*06
$GNVTG,,T,,M,0.219,N,0.405,K,D*33
$GNGGA,170414.00,3259.18827,N,09643.38349,W,2,12,0.70,207.5,M,-25.3,M,,*7D
$PTH,189049*6D
$PENV,189156,1005.71,206.68,-1.00*05
$PENV,189406,1005.70,206.77,-1.00*0A
$PENV,189657,1005.70,206.80,-1.00*04
$PENV,189907,1005.70,206.93,-1.00*0C
$GNVTG,,T,,M,0.084,N,0.155,K,D*35
$GNGGA,170415.00,3259.18826,N,09643.38349,W,2,12,0.62,207.7,M,-25.3,M,,*7C
$PTH,190040*6C
$PENV,190158,1005.70,206.93,-1.00*06
$PENV,190408,1005.70,206.93,-1.00*06
$PENV,190659,1005.71,206.48,-1.00*07
$PENV,190909,1005.70,206.87,-1.00*0F
$GNVTG,,T,,M,0.229,N,0.424,K,D*33
$GNGGA,170416.00,3259.18824,N,09643.38351,W,2,12,0.70,207.5,M,-25.3,M,,*75
$PTH,191047*6A
$PENV,191160,1005.70,206.80,-1.00*0E
$PENV,191410,1005.70,206.84,-1.00*08
$PENV,191660,1005.71,206.66,-1.00*00
$PENV,191911,1005.70,206.80,-1.00*00
$GNVTG,,T,,M,0.098,N,0.181,K,D*31
$GNGGA,170417.00,3259.18824,N,09643.38357,W,2,12,0.68,207.5,M,-25.3,M,,*7B
$PTH,192050*6F
$PENV,192161,1005.70,206.87,-1.00*0B
$PENV,192412,1005.70,206.84,-1.00*09
$PENV,192662,1005.70,206.95,-1.00*0C
$PENV,192913,1005.70,206.91,-1.00*01
$GNVTG,,T,,M,0.387,N,0.717,K,D*35
$GNGGA,170418.00,3259.18822,N,09643.38363,W,2,12,0.72,207.4,M,-25.3,M,,*7F
$PTH,193059*67
$PENV,193163,1005.69,207.11,-1.00*0E
$PENV,193414,1005.69,207.05,-1.00*0E
$PENV,193664,1005.69,207.04,-1.00*0A
$PENV,193914,1005.71,206.51,-1.00*0A
$GNVTG,,T,,M,0.084,N,0.155,K,D*35
$GNGGA,170419.00,3259.18819,N,09643.38371,W,2,12,0.70,207.3,M,-25.3,M,,*70
$PTH,194047*6F
$PENV,194165,1005.70,206.90,-1.00*0F
$PENV,194415,1005.70,206.92,-1.00*0F
$PENV,194666,1005.70,206.98,-1.00*03
$PENV,194916,1005.69,207.15,-1.00*07
$GNVTG,,T,,M,0.363,N,0.672,K,D*3D
$GNGGA,170420.00,3259.18813,N,09643.38373,W,2,12,0.72,207.1,M,-25.3,M,,*72
$PTH,195046*6F
$PENV,195167,1005.70,206.88,-1.00*05
$PENV,195417,1005.69,207.05,-1.00*0B
$PENV,195668,1005.69,207.00,-1.00*04
$PENV,195918,1005.70,206.74,-1.00*06
$GNVTG,,T,,M,0.165,N,0.306,K,D*3F
$GNGGA,170421.00,3259.18811,N,09643.38375,W,2,12,0.78,207.1,M,-25.3,M,,*7D
$PTH,196046*6C
$PENV,196168,1005.71,206.69,-1.00*07
$PENV,196419,1005.68,207.43,-1.00*05
$PENV,196669,1005.69,207.02,-1.00*04
$PENV,196920,1005.70,206.93,-1.00*07
$GNVTG,,T,,M,0.217,N,0.402,K,D*3A
$GNGGA,170422.00,3259.18813,N,09643.38372,W,2,12,0.66,207.2,M,-25.3,M,,*77
$PTH,197048*63
$PENV,197170,1005.68,207.32,-1.00*08
$PENV,197421,1005.69,207.07,-1.00*0E
$PENV,197671,1005.69,207.05,-1.00*0B
$PENV,197922,1005.69,207.00,-1.00*07
$GNVTG,,T,,M,0.089,N,0.165,K,D*3B
$GNGGA,170423.00,3259.18814,N,09643.38371,W,2,12,0.65,207.4,M,-25.3,M,,*77
$PTH,198043*67
$PENV,198172,1005.68,207.31,-1.00*06
$PENV,198423,1005.69,207.16,-1.00*03
$PENV,198673,1005.71,206.64,-1.00*09
$PENV,198923,1005.70,206.95,-1.00*0C
$GNVTG,,T,,M,0.133,N,0.247,K,D*38
$GNGGA,170424.00,3259.18811,N,09643.38375,W,2,12,0.71,207.7,M,-25.3,M,,*77
$PTH,199044*61
$PENV,199174,1005.69,207.07,-1.00*05
$PENV,199424,1005.69,207.10,-1.00*03
$PENV,199675,1005.68,207.45,-1.00*04
$PENV,199925,1005.68,207.35,-1.00*09
$GNVTG,,T,,M,0.057,N,0.105,K,D*3E
$GNGGA,170425.00,3259.18809,N,09643.38378,W,2,12,0.63,208.0,M,-25.3,M,,*79
$PTH,200036*67
$PENV,200176,1005.68,207.38,-1.00*09
$PENV,200426,1005.69,207.18,-1.00*0A
$PENV,200677,1005.67,207.77,-1.00*0B
$PENV,200927,1005.68,207.30,-1.00*0D
$GNVTG,,T,,M,0.119,N,0.220,K,D*31
$GNGGA,170426.00,3259.18807,N,09643.38382,W,2,12,0.65,208.1,M,-25.3,M,,*76
$PTH,201037*67
$PENV,201178,1005.69,207.02,-1.00*0E
$PENV,201428,1005.68,207.41,-1.00*08
$PENV,201678,1005.68,207.32,-1.00*0B
$PENV,201929,1005.68,207.28,-1.00*0B
$GNVTG,,T,,M,0.099,N,0.184,K,D*35
$GNGGA,170427.00,3259.18805,N,09643.38387,W,2,12,0.76,208.0,M,-25.3,M,,*73
$PTH,202030*63
$PENV,202179,1005.69,207.14,-1.00*0B
$PENV,202430,1005.68,207.30,-1.00*04
$PENV,202680,1005.67,207.67,-1.00*00
$PENV,202931,1005.68,207.32,-1.00*0A
$GNVTG,,T,,M,0.131,N,0.243,K,D*3E
$GNGGA,170428.00,3259.18804,N,09643.38393,W,2,12,0.66,208.2,M,-25.3,M,,*7B
$PTH,203035*67
$PENV,203181,1005.68,207.41,-1.00*0C
$PENV,203432,1005.68,207.44,-1.00*04
$PENV,203682,1005.69,207.10,-1.00*0D
$PENV,203933,1005.68,207.42,-1.00*0E
$GNVTG,,T,,M,0.112,N,0.207,K,D*3F
$GNGGA,170429.00,3259.18803,N,09643.38394,W,2,12,0.67,208.0,M,-25.3,M,,*79
$PTH,204040*62
$PENV,204183,1005.69,207.26,-1.00*09
$PENV,204433,1005.68,207.49,-1.00*0F
$PENV,204684,1005.68,207.45,-1.00*0D
$PENV,204934,1005.69,207.16,-1.00*0E
$GNVTG,,T,,M,0.276,N,0.511,K,D*3E
$GNGGA,170430.00,3259.18800,N,09643.38395,W,2,12,0.57,208.1,M,-25.3,M,,*71
$PTH,205045*66
$PENV,205185,1005.68,207.53,-1.00*0D
$PENV,205435,1005.69,207.10,-1.00*05
$PENV,205686,1005.68,207.47,-1.00*0C
$PENV,205936,1005.68,207.44,-1.00*0B
$GNVTG,,T,,M,0.503,N,0.931,K,D*35
$GNGGA,170431.00,3259.18807,N,09643.38392,W,2,12,0.67,208.2,M,-25.3,M,,*70
$PTH,206063*61
$PENV,206187,1005.67,207.56,-1.00*06
$PENV,206437,1005.69,207.12,-1.00*06
$PENV,206687,1005.69,207.03,-1.00*0F
$PENV,206938,1005.69,207.10,-1.00*06
$GNVTG,,T,,M,0.004,N,0.007,K,D*3B
$GNGGA,170432.00,3259.18813,N,09643.38395,W,2,12,0.65,208.3,M,-25.3,M,,*72
$PTH,207045*64
$PENV,207188,1005.69,207.26,-1.00*01
$PENV,207439,1005.69,207.06,-1.00*0C
$PENV,207689,1005.68,207.38,-1.00*09
$PENV,207940,1005.68,207.36,-1.00*0D
$GNVTG,,T,,M,0.094,N,0.173,K,D*30
$GNGGA,170433.00,3259.18815,N,09643.38396,W,2,12,0.67,208.4,M,-25.3,M,,*73
$PTH,208051*6E
$PENV,208190,1005.68,207.49,-1.00*0F
$PENV,208441,1005.68,207.50,-1.00*0E
$PENV,208691,1005.68,207.44,-1.00*04
$PENV,208941,1005.70,206.92,-1.00*05
$GNVTG,,T,,M,0.088,N,0.163,K,D*3C
$GNGGA,170434.00,3259.18818,N,09643.38397,W,2,12,0.70,208.5,M,-25.3,M,,*7F
$PTH,209038*60
$PENV,209192,1005.69,207.00,-1.00*00
$PENV,209442,1005.69,207.00,-1.00*08
$PENV,209693,1005.69,207.11,-1.00*06
$PENV,209943,1005.68,207.34,-1.00*02
$GNVTG,,T,,M,0.075,N,0.138,K,D*30
$GNGGA,170435.00,3259.18818,N,09643.38415,W,2,12,0.68,209.1,M,-25.3,M,,*7F
$PTH,210047*60
$PENV,210194,1005.69,207.22,-1.00*0E
$PENV,210444,1005.68,207.39,-1.00*0D
$PENV,210695,1005.69,207.21,-1.00*0B
$PENV,210945,1005.69,207.21,-1.00*09
$GNVTG,,T,,M,0.129,N,0.238,K,D*3B
$GNGGA,170436.00,3259.18818,N,09643.38432,W,2,12,0.66,209.8,M,-25.3,M,,*7E
$PTH,211050*67
$PENV,211196,1005.68,207.53,-1.00*0A
$PENV,211446,1005.68,207.41,-1.00*01
$PENV,211696,1005.67,207.77,-1.00*04
$PENV,211947,1005.68,207.28,-1.00*02
$GNVTG,,T,,M,0.163,N,0.303,K,D*3C
$GNGGA,170437.00,3259.18818,N,09643.38440,W,2,12,0.65,210.3,M,-25.3,M,,*7A
$PTH,212044*61
$PENV,212197,1005.68,207.36,-1.00*0B
$PENV,212448,1005.69,207.12,-1.00*0B
$PENV,212698,1005.69,207.26,-1.00*03
$PENV,212949,1005.69,207.22,-1.00*04
$GNVTG,,T,,M,0.038,N,0.071,K,D*35
$GNGGA,170438.00,3259.18818,N,09643.38447,W,2,12,0.65,210.7,M,-25.3,M,,*76
$PTH,213048*6C
$PENV,213199,1005.69,207.17,-1.00*06
$PENV,213450,1005.69,207.06,-1.00*06
$PENV,213700,1005.67,207.66,-1.00*08
$PENV,213950,1005.68,207.39,-1.00*06
$GNVTG,,T,,M,0.012,N,0.022,K,D*3B
$GNGGA,170439.00,3259.18815,N,09643.38459,W,2,12,0.74,211.1,M,-25.3,M,,*72
$PTH,214046*65
$PENV,214201,1005.70,206.96,-1.00*03
$PENV,214451,1005.67,207.76,-1.00*09
$PENV,214702,1005.66,207.95,-1.00*00
$PENV,214952,1005.67,207.58,-1.00*0B
$GNVTG,,T,,M,0.143,N,0.266,K,D*3C
$GNGGA,170440.00,3259.18812,N,09643.38473,W,2,12,0.74,211.6,M,-25.3,M,,*74
$PTH,215046*64
$PENV,215203,1005.68,207.47,-1.00*04
$PENV,215453,1005.68,207.35,-1.00*02
$PENV,215704,1005.70,206.85,-1.00*00
$PENV,215954,1005.68,207.39,-1.00*04
$GNVTG,,T,,M,0.051,N,0.095,K,D*30
$GNGGA,170441.00,3259.18812,N,09643.38483,W,2,12,0.68,212.0,M,-25.3,M,,*72
$PTH,216047*66
$PENV,216205,1005.69,207.17,-1.00*05
$PENV,216455,1005.69,207.06,-1.00*06
$PENV,216705,1005.68,207.30,-1.00*04
$PENV,216956,1005.68,207.37,-1.00*0B
$GNVTG,,T,,M,0.122,N,0.226,K,D*3F
