$PVER,"Tempo V1 0.1.0 (0a5cd0e-dirty)",101*7C
$PSFC,226*1C
$PST,78,ARMED,LOGGING,manual_start*61
$PENV,327,1004.98,226.66,-1.00*3B
$PENV,578,1004.98,226.68,-1.00*39
$PENV,828,1004.99,226.39,-1.00*34
$GNVTG,,T,,M,0.290,N,0.537,K,A*37
$GNGGA,172859.00,3259.18714,N,09643.38202,W,1,12,0.65,204.6,M,-25.3,M,,*7C
$PTH,1021*62
$PENV,1079,1004.97,226.93,-1.00*07
$PENV,1329,1004.99,226.28,-1.00*0F
$PENV,1580,1004.99,226.41,-1.00*05
$PENV,1830,1004.97,226.81,-1.00*01
$GNVTG,,T,,M,0.258,N,0.477,K,A*36
$GNGGA,172900.00,3259.18718,N,09643.38197,W,1,12,0.62,204.5,M,-25.3,M,,*76
$PTH,2030*61
$PENV,2080,1004.99,226.47,-1.00*05
$PENV,2331,1004.99,226.50,-1.00*0A
$PENV,2581,1004.99,226.31,-1.00*00
$PENV,2832,1004.99,226.46,-1.00*05
$GNVTG,,T,,M,0.170,N,0.315,K,A*3C
$GNGGA,172901.00,3259.18721,N,09643.38200,W,1,12,0.65,204.7,M,-25.3,M,,*75
$PTH,3023*62
$PENV,3082,1004.98,226.69,-1.00*0B
$PENV,3333,1004.99,226.27,-1.00*09
$PENV,3583,1004.97,226.93,-1.00*05
$PENV,3833,1004.98,226.69,-1.00*09
$GNVTG,,T,,M,0.124,N,0.230,K,A*3B
$GNGGA,172902.00,3259.18721,N,09643.38200,W,1,12,0.69,204.9,M,-25.3,M,,*74
$PTH,4031*66
$PENV,4084,1004.99,226.44,-1.00*04
$PENV,4334,1004.99,226.26,-1.00*08
$PENV,4585,1004.98,226.53,-1.00*07
$PENV,4835,1004.98,226.58,-1.00*0A
$GNVTG,,T,,M,0.172,N,0.318,K,A*33
$GNGGA,172903.00,3259.18722,N,09643.38194,W,1,12,0.67,205.3,M,-25.3,M,,*7D
$PTH,5020*67
$PENV,5086,1004.98,226.60,-1.00*00
$PENV,5336,1004.98,226.67,-1.00*0F
$PENV,5586,1004.98,226.73,-1.00*07
$PENV,5837,1005.00,226.16,-1.00*03
$GNVTG,,T,,M,0.208,N,0.386,K,A*3A
$GNGGA,172904.00,3259.18730,N,09643.38193,W,1,12,0.65,206.2,M,-25.3,M,,*7E
$PTH,6033*66
$PENV,6087,1004.99,226.37,-1.00*01
$PENV,6338,1004.97,226.94,-1.00*01
$PENV,6588,1004.99,226.47,-1.00*0C
$PENV,6839,1004.97,227.05,-1.00*02
$GNVTG,278.79,T,,M,0.643,N,1.190,K,A*28
$GNGGA,172905.00,3259.18738,N,09643.38192,W,1,12,0.71,206.3,M,-25.3,M,,*72
$PTH,7023*66
$PENV,7089,1004.98,226.67,-1.00*0A
$PENV,7339,1004.99,226.23,-1.00*03
$PENV,7590,1004.98,226.79,-1.00*08
$PENV,7840,1004.98,226.54,-1.00*07
$GNVTG,,T,,M,0.146,N,0.271,K,A*3A
$GNGGA,172906.00,3259.18751,N,09643.38193,W,1,12,0.74,206.6,M,-25.3,M,,*7F
$PTH,8040*6C
$PENV,8091,1004.99,226.43,-1.00*0B
$PENV,8341,1004.98,226.55,-1.00*03
$PENV,8592,1004.99,226.33,-1.00*0A
$PENV,8842,1004.98,226.75,-1.00*09
$GNVTG,,T,,M,0.190,N,0.352,K,A*31
$GNGGA,172907.00,3259.18750,N,09643.38191,W,1,12,0.69,206.9,M,-25.3,M,,*7E
$PTH,9023*68
$PENV,9092,1004.98,226.67,-1.00*0E
$PENV,9343,1004.98,226.72,-1.00*05
$PENV,9593,1004.98,226.55,-1.00*0B
$PENV,9844,1004.98,226.52,-1.00*0B
$GNVTG,,T,,M,0.202,N,0.375,K,A*3C
$GNGGA,172908.00,3259.18745,N,09643.38187,W,1,12,0.72,206.9,M,-25.3,M,,*78
$PTH,10023*50
$PENV,10094,1005.00,226.15,-1.00*35
$PENV,10345,1004.98,226.61,-1.00*39
$PENV,10595,1004.98,226.60,-1.00*33
$PENV,10846,1004.98,226.54,-1.00*37
$GNVTG,252.15,T,,M,0.370,N,0.684,K,A*2C
$GNGGA,172909.00,3259.18743,N,09643.38186,W,1,12,0.69,207.1,M,-25.3,M,,*7D
$PTH,11018*59
$PENV,11096,1004.99,226.49,-1.00*3E
$PENV,11346,1004.99,226.33,-1.00*3D
$PENV,11597,1004.99,226.43,-1.00*30
$PENV,11847,1004.98,226.68,-1.00*38
$GNVTG,,T,,M,0.288,N,0.534,K,A*3D
$GNGGA,172910.00,3259.18742,N,09643.38185,W,1,12,0.69,207.3,M,-25.3,M,,*75
$PTH,12021*50
$PENV,12098,1004.98,226.72,-1.00*3A
$PENV,12348,1004.97,226.80,-1.00*36
$PENV,12598,1005.00,226.01,-1.00*3B
$PENV,12849,1004.98,226.73,-1.00*3F
$GNVTG,,T,,M,0.463,N,0.857,K,A*36
$GNGGA,172911.00,3259.18752,N,09643.38181,W,1,12,0.69,207.2,M,-25.3,M,,*70
$PTH,13022*52
$PENV,13099,1004.98,226.77,-1.00*3F
$PENV,13350,1004.99,226.27,-1.00*3D
$PENV,13600,1004.99,226.34,-1.00*3F
$PENV,13851,1004.99,226.29,-1.00*39
$GNVTG,,T,,M,0.126,N,0.234,K,A*3D
$GNGGA,172912.00,3259.18755,N,09643.38176,W,1,12,0.82,207.0,M,-25.3,M,,*7B
$PTH,14014*50
$PENV,14101,1004.98,226.54,-1.00*39
$PENV,14351,1004.98,226.68,-1.00*31
$PENV,14602,1004.99,226.47,-1.00*3E
$PENV,14852,1004.99,226.34,-1.00*31
$GNVTG,,T,,M,0.516,N,0.955,K,A*36
$GNGGA,172913.00,3259.18761,N,09643.38171,W,1,12,0.69,206.9,M,-25.3,M,,*77
$PTH,15020*56
$PENV,15103,1004.98,226.58,-1.00*36
$PENV,15353,1004.99,226.34,-1.00*3A
$PENV,15604,1004.98,226.58,-1.00*36
$PENV,15854,1004.97,226.95,-1.00*33
$GNVTG,,T,,M,0.268,N,0.496,K,A*3A
$GNGGA,172914.00,3259.18763,N,09643.38161,W,1,12,0.69,206.8,M,-25.3,M,,*72
$PTH,16020*55
$PENV,16105,1004.98,226.74,-1.00*3D
$PENV,16355,1005.00,226.11,-1.00*39
$PENV,16605,1004.98,226.62,-1.00*3D
$PENV,16856,1004.98,226.58,-1.00*3C
$GNVTG,,T,,M,0.267,N,0.495,K,A*36
$GNGGA,172915.00,3259.18759,N,09643.38155,W,1,12,0.69,206.7,M,-25.3,M,,*72
$PTH,17022*56
$PENV,17106,1005.00,226.21,-1.00*3F
$PENV,17357,1004.99,226.43,-1.00*3C
$PENV,17607,1004.99,226.28,-1.00*31
$PENV,17858,1004.98,226.67,-1.00*3F
$GNVTG,,T,,M,0.263,N,0.488,K,A*3E
$GNGGA,172916.00,3259.18753,N,09643.38156,W,1,12,0.68,206.7,M,-25.3,M,,*79
$PTH,18014*5C
$PENV,18108,1005.00,226.08,-1.00*35
$PENV,18358,1005.00,226.23,-1.00*3B
$PENV,18609,1004.98,226.53,-1.00*3D
$PENV,18859,1004.98,226.74,-1.00*33
$GNVTG,,T,,M,0.133,N,0.245,K,A*3F
$GNGGA,172917.00,3259.18744,N,09643.38161,W,1,12,0.68,206.8,M,-25.3,M,,*75
$PTH,19020*5A
$PENV,19110,1004.98,226.54,-1.00*34
$PENV,19360,1005.00,226.01,-1.00*31
$PENV,19611,1005.00,226.23,-1.00*32
$PENV,19861,1004.98,226.57,-1.00*38
$GNVTG,,T,,M,0.239,N,0.443,K,A*36
$GNGGA,172918.00,3259.18737,N,09643.38165,W,1,12,0.75,206.9,M,-25.3,M,,*77
$PTH,20019*5A
$PENV,20111,1004.99,226.26,-1.00*3B
$PENV,20362,1005.00,226.20,-1.00*3A
$PENV,20612,1004.98,226.69,-1.00*35
$PENV,20863,1004.99,226.40,-1.00*37
$GNVTG,,T,,M,0.234,N,0.433,K,A*3C
$GNGGA,172919.00,3259.18725,N,09643.38168,W,1,12,0.68,206.9,M,-25.3,M,,*74
$PTH,21020*51
$PENV,21113,1005.01,225.93,-1.00*35
$PENV,21364,1004.99,226.33,-1.00*3E
$PENV,21614,1004.98,226.53,-1.00*3B
$PENV,21865,1004.99,226.48,-1.00*38
$GNVTG,,T,,M,0.313,N,0.580,K,A*31
$GNGGA,172920.00,3259.18723,N,09643.38165,W,1,12,0.74,206.9,M,-25.3,M,,*78
$PTH,22006*56
$PENV,22115,1004.99,226.41,-1.00*3C
$PENV,22365,1004.99,226.33,-1.00*3C
$PENV,22616,1005.00,226.08,-1.00*34
$PENV,22866,1004.98,226.74,-1.00*36
$GNVTG,,T,,M,0.286,N,0.530,K,A*37
$GNGGA,172921.00,3259.18714,N,09643.38165,W,1,12,0.71,206.9,M,-25.3,M,,*78
$PTH,23006*57
$PENV,23117,1004.99,226.46,-1.00*38
$PENV,23367,1004.98,226.64,-1.00*3C
$PENV,23618,1004.98,226.67,-1.00*32
$PENV,23868,1005.00,226.21,-1.00*39
$GNVTG,,T,,M,0.437,N,0.809,K,A*3C
$GNGGA,172922.00,3259.18712,N,09643.38173,W,1,12,0.68,207.0,M,-25.3,M,,*7A
$PTH,24002*54
$PENV,24118,1004.99,226.48,-1.00*3E
$PENV,24369,1004.99,226.38,-1.00*3D
$PENV,24619,1004.98,226.55,-1.00*35
$PENV,24870,1004.98,226.67,-1.00*35
$GNVTG,,T,,M,0.142,N,0.262,K,A*3C
$GNGGA,172923.00,3259.18715,N,09643.38181,W,1,12,0.73,207.4,M,-25.3,M,,*7F
$PTH,25009*5E
$PENV,25120,1004.98,226.69,-1.00*36
$PENV,25371,1004.98,226.70,-1.00*38
$PENV,25621,1004.98,226.58,-1.00*32
$PENV,25871,1004.99,226.32,-1.00*34
$GNVTG,,T,,M,0.218,N,0.404,K,A*36
$GNGGA,172924.00,3259.18707,N,09643.38187,W,1,12,0.71,207.6,M,-25.3,M,,*7D
$PTH,26018*5D
$PENV,26122,1004.98,226.60,-1.00*3E
$PENV,26372,1004.99,226.29,-1.00*35
$PENV,26623,1004.98,226.52,-1.00*39
$PENV,26873,1004.97,226.96,-1.00*35
$GNVTG,313.44,T,,M,0.450,N,0.834,K,A*2C
$GNGGA,172925.00,3259.18706,N,09643.38195,W,1,12,0.68,207.7,M,-25.3,M,,*77
$PTH,27019*5D
$PENV,27124,1004.98,226.60,-1.00*39
$PENV,27374,1004.98,226.60,-1.00*3E
$PENV,27624,1004.98,226.55,-1.00*38
$PENV,27875,1004.99,226.48,-1.00*3F
$GNVTG,,T,,M,0.407,N,0.753,K,A*3F
$GNGGA,172926.00,3259.18699,N,09643.38202,W,1,12,0.68,207.8,M,-25.3,M,,*71
$PTH,28020*58
$PENV,28125,1004.98,226.73,-1.00*35
$PENV,28376,1004.99,226.35,-1.00*32
$PENV,28626,1004.99,226.37,-1.00*30
$PENV,28877,1004.99,226.34,-1.00*39
$GNVTG,,T,,M,0.257,N,0.476,K,A*38
$GNGGA,172927.00,3259.18684,N,09643.38205,W,1,12,0.74,207.9,M,-25.3,M,,*77
$PTH,29021*58
$PENV,29127,1004.99,226.50,-1.00*36
$PENV,29377,1004.98,226.67,-1.00*34
$PENV,29628,1004.98,226.60,-1.00*3C
$PENV,29878,1004.98,226.64,-1.00*33
$GNVTG,,T,,M,0.153,N,0.284,K,A*34
$GNGGA,172928.00,3259.18682,N,09643.38208,W,1,12,0.68,208.1,M,-25.3,M,,*79
$PTH,30014*56
$PENV,30129,1004.98,226.79,-1.00*3A
$PENV,30379,1004.97,226.84,-1.00*30
$PENV,30630,1004.99,226.40,-1.00*3E
$PENV,30880,1004.99,226.41,-1.00*3A
$GNVTG,,T,,M,0.385,N,0.713,K,A*36
$GNGGA,172929.00,3259.18674,N,09643.38211,W,1,12,0.68,208.2,M,-25.3,M,,*7A
$PTH,31027*57
$PENV,31130,1004.98,226.65,-1.00*3E
$PENV,31381,1004.97,226.86,-1.00*34
$PENV,31631,1004.97,226.87,-1.00*3B
$PENV,31882,1004.98,226.76,-1.00*3C
$GNVTG,,T,,M,0.260,N,0.482,K,A*37
$GNGGA,172930.00,3259.18665,N,09643.38214,W,1,12,0.75,208.2,M,-25.3,M,,*7B
$PTH,32020*53
$PENV,32132,1004.97,226.94,-1.00*3E
$PENV,32383,1004.98,226.68,-1.00*3A
$PENV,32633,1004.97,227.05,-1.00*31
$PENV,32883,1004.98,226.60,-1.00*39
$GNVTG,,T,,M,0.356,N,0.659,K,A*37
$GNGGA,172931.00,3259.18667,N,09643.38213,W,1,12,0.68,208.1,M,-25.3,M,,*70
$PTH,33039*5A
$PENV,33134,1004.97,226.81,-1.00*3D
$PENV,33384,1004.97,226.93,-1.00*37
$PENV,33635,1004.98,226.76,-1.00*3C
$PENV,33885,1004.96,227.12,-1.00*34
$GNVTG,,T,,M,0.073,N,0.135,K,A*3E
$GNGGA,172932.00,3259.18664,N,09643.38212,W,1,12,0.68,208.1,M,-25.3,M,,*71
$PTH,34038*5C
$PENV,34136,1004.99,226.40,-1.00*3B
$PENV,34386,1004.98,226.75,-1.00*35
$PENV,34636,1004.97,226.84,-1.00*3A
$PENV,34887,1004.96,227.26,-1.00*36
$GNVTG,,T,,M,0.166,N,0.308,K,A*37
$GNGGA,172933.00,3259.18662,N,09643.38210,W,1,12,0.66,208.2,M,-25.3,M,,*79
$PTH,35013*54
$PENV,35137,1004.96,227.11,-1.00*31
$PENV,35388,1004.96,227.11,-1.00*37
$PENV,35638,1004.96,227.28,-1.00*33
$PENV,35889,1004.96,227.17,-1.00*3B
$GNVTG,,T,,M,0.120,N,0.223,K,A*3D
$GNGGA,172934.00,3259.18661,N,09643.38208,W,1,12,0.68,208.1,M,-25.3,M,,*79
$PTH,36020*57
$PENV,36139,1004.97,226.95,-1.00*30
$PENV,36389,1004.97,226.79,-1.00*3B
$PENV,36640,1004.97,226.94,-1.00*38
$PENV,36890,1004.97,226.98,-1.00*37
$GNVTG,,T,,M,0.213,N,0.395,K,A*32
$GNGGA,172935.00,3259.18658,N,09643.38206,W,1,12,0.68,208.1,M,-25.3,M,,*7C
$PTH,37015*50
$PENV,37141,1004.98,226.62,-1.00*39
$PENV,37391,1004.98,226.70,-1.00*35
$PENV,37642,1004.97,226.99,-1.00*36
$PENV,37892,1004.98,226.63,-1.00*3F
$GNVTG,,T,,M,0.215,N,0.398,K,A*39
$GNGGA,172936.00,3259.18657,N,09643.38207,W,1,12,0.85,208.3,M,-25.3,M,,*70
$PTH,38019*53
$PENV,38142,1004.96,227.24,-1.00*38
$PENV,38393,1004.96,227.22,-1.00*30
$PENV,38643,1004.97,227.05,-1.00*3C
$PENV,38894,1004.96,227.10,-1.00*3D
$GNVTG,,T,,M,0.166,N,0.308,K,A*37
$GNGGA,172937.00,3259.18659,N,09643.38212,W,1,12,0.78,208.6,M,-25.3,M,,*7C
$PTH,39019*52
$PENV,39144,1004.96,227.07,-1.00*3E
$PENV,39395,1004.98,226.78,-1.00*37
$PENV,39645,1004.96,227.07,-1.00*38
$PENV,39895,1004.98,226.64,-1.00*31
$GNVTG,,T,,M,0.283,N,0.524,K,A*37
$GNGGA,172938.00,3259.18665,N,09643.38208,W,1,12,0.70,208.6,M,-25.3,M,,*7F
$PTH,40015*50
$PENV,40146,1004.97,226.92,-1.00*3E
$PENV,40396,1004.96,227.10,-1.00*3B
$PENV,40647,1004.98,226.75,-1.00*3E
$PENV,40897,1004.96,227.10,-1.00*31
$GNVTG,,T,,M,0.099,N,0.184,K,A*30
$GNGGA,172939.00,3259.18671,N,09643.38209,W,1,12,0.80,208.8,M,-25.3,M,,*7B
$PTH,41020*57
$PENV,41148,1004.97,226.88,-1.00*3A
$PENV,41398,1004.96,227.12,-1.00*36
$PENV,41648,1004.97,226.84,-1.00*31
$PENV,41899,1004.98,226.67,-1.00*31
$GNVTG,,T,,M,0.239,N,0.443,K,A*36
$GNGGA,172940.00,3259.18669,N,09643.38208,W,1,12,0.70,209.1,M,-25.3,M,,*7A
$PTH,42013*54
$PENV,42149,1004.96,227.10,-1.00*39
$PENV,42400,1004.97,226.93,-1.00*3A
$PENV,42650,1004.96,227.11,-1.00*37
$PENV,42901,1004.97,226.83,-1.00*37
$GNVTG,,T,,M,0.134,N,0.249,K,A*34
$GNGGA,172941.00,3259.18666,N,09643.38199,W,1,12,0.73,209.0,M,-25.3,M,,*7D
$PTH,43016*50
$PENV,43151,1004.96,227.19,-1.00*38
$PENV,43402,1004.96,227.17,-1.00*35
$PENV,43652,1004.97,226.80,-1.00*3C
$PENV,43902,1004.97,226.99,-1.00*3E
$GNVTG,,T,,M,0.192,N,0.355,K,A*34
$GNGGA,172942.00,3259.18662,N,09643.38192,W,1,12,0.74,209.0,M,-25.3,M,,*76
$PTH,44016*57
$PENV,44153,1004.96,227.08,-1.00*3D
$PENV,44403,1004.97,226.80,-1.00*3D
$PENV,44654,1004.96,227.17,-1.00*33
$PENV,44904,1004.95,227.45,-1.00*3D
$GNVTG,,T,,M,0.140,N,0.260,K,A*3C
$GNGGA,172943.00,3259.18657,N,09643.38186,W,1,12,0.68,209.0,M,-25.3,M,,*79
$PTH,45018*58
$PENV,45155,1004.97,227.01,-1.00*32
$PENV,45405,1004.97,226.84,-1.00*3E
$PENV,45655,1004.97,226.99,-1.00*35
$PENV,45906,1004.96,227.28,-1.00*36
$GNVTG,,T,,M,0.140,N,0.260,K,A*3C
$GNGGA,172944.00,3259.18656,N,09643.38181,W,1,12,0.69,208.6,M,-25.3,M,,*7E
$PTH,46007*55
$PENV,46156,1004.96,227.17,-1.00*34
$PENV,46407,1004.96,227.26,-1.00*37
$PENV,46657,1004.97,226.96,-1.00*3B
$PENV,46908,1004.96,227.06,-1.00*37
$GNVTG,,T,,M,0.114,N,0.211,K,A*3B
$GNGGA,172945.00,3259.18653,N,09643.38180,W,1,12,0.78,208.6,M,-25.3,M,,*7B
$PTH,47013*51
$PENV,47158,1004.96,227.12,-1.00*3E
$PENV,47408,1004.95,227.39,-1.00*34
$PENV,47659,1004.95,227.37,-1.00*3C
$PENV,47909,1004.96,227.19,-1.00*39
$GNVTG,,T,,M,0.070,N,0.130,K,A*38
$GNGGA,172946.00,3259.18652,N,09643.38177,W,1,12,0.68,208.5,M,-25.3,M,,*73
$PTH,48000*5C
$PENV,48160,1004.96,227.27,-1.00*3C
$PENV,48410,1004.96,227.08,-1.00*33
$PENV,48661,1004.97,227.03,-1.00*3D
$PENV,48911,1004.96,227.18,-1.00*3E
$GNVTG,,T,,M,0.151,N,0.279,K,A*34
$GNGGA,172947.00,3259.18653,N,09643.38179,W,1,12,0.68,208.6,M,-25.3,M,,*7E
$PTH,49013*5F
$PENV,49161,1004.96,227.22,-1.00*39
$PENV,49412,1004.96,227.23,-1.00*39
$PENV,49662,1004.95,227.43,-1.00*39
$PENV,49913,1004.96,227.29,-1.00*3F
$GNVTG,,T,,M,0.228,N,0.423,K,A*30
$GNGGA,172948.00,3259.18654,N,09643.38183,W,1,12,0.77,208.4,M,-25.3,M,,*7F
$PTH,50004*51
$PENV,50163,1004.96,227.09,-1.00*3A
$PENV,50414,1004.96,227.22,-1.00*36
$PENV,50664,1004.96,227.17,-1.00*35
$PENV,50915,1004.95,227.47,-1.00*3A
$GNVTG,,T,,M,0.334,N,0.619,K,A*37
$GNGGA,172949.00,3259.18659,N,09643.38187,W,1,12,0.69,208.3,M,-25.3,M,,*7F
$PTH,51016*53
$PENV,51165,1004.95,227.38,-1.00*3C
$PENV,51415,1004.96,227.26,-1.00*32
$PENV,51666,1004.97,227.03,-1.00*32
$PENV,51916,1004.97,226.99,-1.00*38
$GNVTG,,T,,M,0.394,N,0.731,K,A*36
$GNGGA,172950.00,3259.18657,N,09643.38188,W,1,12,0.69,208.5,M,-25.3,M,,*70
$PTH,52019*5F
$PENV,52167,1004.96,227.28,-1.00*3F
$PENV,52417,1004.96,227.15,-1.00*33
$PENV,52668,1004.95,227.43,-1.00*39
$PENV,52918,1004.96,227.24,-1.00*33
$GNVTG,,T,,M,0.078,N,0.144,K,A*33
$GNGGA,172951.00,3259.18657,N,09643.38184,W,1,12,0.81,208.6,M,-25.3,M,,*78
$PTH,53014*53
$PENV,53168,1004.96,227.08,-1.00*33
$PENV,53419,1004.97,227.01,-1.00*38
$PENV,53669,1004.96,227.26,-1.00*39
$PENV,53920,1004.95,227.36,-1.00*39
$GNVTG,,T,,M,0.048,N,0.088,K,A*31
$GNGGA,172952.00,3259.18661,N,09643.38183,W,1,12,0.68,208.8,M,-25.3,M,,*70
$PTH,54019*59
$PENV,54170,1004.95,227.51,-1.00*32
$PENV,54421,1004.96,227.32,-1.00*35
$PENV,54671,1004.94,227.75,-1.00*33
$PENV,54921,1004.94,227.70,-1.00*3C
$GNVTG,,T,,M,0.103,N,0.190,K,A*37
$GNGGA,172953.00,3259.18663,N,09643.38184,W,1,12,0.68,208.9,M,-25.3,M,,*75
$PTH,55012*53
$PENV,55172,1004.95,227.48,-1.00*39
$PENV,55422,1004.95,227.43,-1.00*32
$PENV,55673,1004.94,227.66,-1.00*32
$PENV,55923,1004.95,227.55,-1.00*39
$GNVTG,,T,,M,0.108,N,0.199,K,A*35
$GNGGA,172954.00,3259.18666,N,09643.38185,W,1,12,0.71,209.0,M,-25.3,M,,*76
$PTH,56019*5B
$PENV,56174,1004.96,227.22,-1.00*33
$PENV,56424,1004.95,227.36,-1.00*35
$PENV,56675,1004.95,227.47,-1.00*35
$PENV,56925,1004.96,227.29,-1.00*34
$GNVTG,,T,,M,0.130,N,0.241,K,A*38
$GNGGA,172955.00,3259.18672,N,09643.38180,W,1,12,0.68,208.8,M,-25.3,M,,*76
$PTH,57019*5A
$PENV,57175,1004.96,227.24,-1.00*35
$PENV,57426,1004.95,227.55,-1.00*33
$PENV,57676,1004.95,227.37,-1.00*30
$PENV,57927,1004.96,227.13,-1.00*3E
$GNVTG,,T,,M,0.240,N,0.444,K,A*3F
$GNGGA,172956.00,3259.18678,N,09643.38176,W,1,12,0.74,208.6,M,-25.3,M,,*75
$PTH,58012*5E
$PENV,58177,1004.94,227.69,-1.00*33
$PENV,58428,1004.95,227.38,-1.00*39
$PENV,58678,1004.96,227.20,-1.00*34
$PENV,58928,1004.95,227.49,-1.00*32
$GNVTG,,T,,M,0.071,N,0.132,K,A*3B
$GNGGA,172957.00,3259.18687,N,09643.38175,W,1,12,0.90,208.6,M,-25.3,M,,*7D
$PTH,59018*55
$PENV,59179,1004.96,227.31,-1.00*33
$PENV,59429,1004.96,227.11,-1.00*31
$PENV,59680,1004.97,226.93,-1.00*3A
$PENV,59930,1004.95,227.49,-1.00*3A
$GNVTG,,T,,M,0.170,N,0.314,K,A*3D
$GNGGA,172958.00,3259.18695,N,09643.38177,W,1,12,0.68,208.5,M,-25.3,M,,*77
$PTH,60018*5F
$PENV,60181,1004.95,227.43,-1.00*38
$PENV,60431,1004.95,227.45,-1.00*30
$PENV,60681,1004.94,227.63,-1.00*3C
$PENV,60932,1004.95,227.45,-1.00*3E
$GNVTG,,T,,M,0.046,N,0.085,K,A*32
$GNGGA,172959.00,3259.18701,N,09643.38178,W,1,12,0.68,208.5,M,-25.3,M,,*75
$PTH,61019*5F
$PENV,61182,1004.94,227.63,-1.00*39
$PENV,61433,1004.95,227.45,-1.00*33
$PENV,61683,1004.95,227.41,-1.00*3E
$PENV,61934,1004.95,227.35,-1.00*3E
$GNVTG,,T,,M,0.095,N,0.176,K,A*31
$GNGGA,173000.00,3259.18707,N,09643.38174,W,1,12,0.85,208.3,M,-25.3,M,,*7E
$PTH,62024*52
$PENV,62184,1004.96,227.24,-1.00*3D
$PENV,62434,1004.95,227.57,-1.00*34
$PENV,62685,1004.94,227.63,-1.00*3A
$PENV,62935,1004.94,227.64,-1.00*39
$GNVTG,,T,,M,0.333,N,0.616,K,A*3F
$GNGGA,173001.00,3259.18709,N,09643.38170,W,1,12,0.74,208.3,M,-25.3,M,,*7B
$PTH,63025*52
$PENV,63186,1004.96,227.33,-1.00*38
$PENV,63436,1004.96,227.30,-1.00*35
$PENV,63687,1004.95,227.34,-1.00*3A
$PENV,63937,1004.95,227.43,-1.00*3E
$GNVTG,,T,,M,0.255,N,0.473,K,A*3F
$GNGGA,173002.00,3259.18709,N,09643.38162,W,1,12,0.74,208.2,M,-25.3,M,,*7A
$PTH,64024*54
$PENV,64187,1004.95,227.46,-1.00*3F
$PENV,64438,1004.95,227.55,-1.00*3C
$PENV,64688,1004.96,227.17,-1.00*30
$PENV,64939,1004.94,227.68,-1.00*3F
$GNVTG,,T,,M,0.294,N,0.544,K,A*37
$GNGGA,173003.00,3259.18710,N,09643.38161,W,1,12,0.75,208.4,M,-25.3,M,,*77
$PTH,65020*51
$PENV,65189,1004.95,227.49,-1.00*3F
$PENV,65440,1004.95,227.39,-1.00*38
$PENV,65690,1004.94,227.64,-1.00*3E
$PENV,65940,1004.94,227.69,-1.00*31
$GNVTG,,T,,M,0.175,N,0.324,K,A*3B
$GNGGA,173004.00,3259.18714,N,09643.38161,W,1,12,0.68,208.5,M,-25.3,M,,*79
$PTH,66039*5A
$PENV,66191,1004.92,228.20,-1.00*32
$PENV,66441,1004.95,227.60,-1.00*36
$PENV,66692,1004.95,227.38,-1.00*37
$PENV,66942,1004.97,226.93,-1.00*37
$GNVTG,,T,,M,0.080,N,0.148,K,A*38
$GNGGA,173005.00,3259.18717,N,09643.38157,W,1,12,0.72,208.4,M,-25.3,M,,*74
$PTH,67033*51
$PENV,67193,1004.96,227.31,-1.00*3A
$PENV,67443,1004.94,227.63,-1.00*37
$PENV,67693,1004.95,227.35,-1.00*3A
$PENV,67944,1004.96,227.26,-1.00*3E
$GNVTG,,T,,M,0.043,N,0.079,K,A*34
$GNGGA,173006.00,3259.18717,N,09643.38153,W,1,12,0.69,208.4,M,-25.3,M,,*79
$PTH,68022*5E
$PENV,68194,1004.96,227.17,-1.00*36
$PENV,68445,1004.94,227.71,-1.00*3D
$PENV,68695,1004.95,227.50,-1.00*30
$PENV,68946,1004.94,227.88,-1.00*35
$GNVTG,,T,,M,0.078,N,0.144,K,A*33
$GNGGA,173007.00,3259.18717,N,09643.38151,W,1,12,0.72,208.4,M,-25.3,M,,*70
$PTH,69012*5C
$PENV,69196,1004.95,227.48,-1.00*3C
$PENV,69446,1004.95,227.61,-1.00*3F
$PENV,69697,1004.94,227.69,-1.00*38
$PENV,69947,1004.95,227.61,-1.00*33
$GNVTG,,T,,M,0.174,N,0.322,K,A*3C
$GNGGA,173008.00,3259.18722,N,09643.38145,W,1,12,0.68,208.3,M,-25.3,M,,*70
$PTH,70009*5E
$PENV,70198,1004.96,227.28,-1.00*3F
$PENV,70448,1004.95,227.37,-1.00*3A
$PENV,70699,1004.96,227.29,-1.00*38
$PENV,70949,1004.96,227.22,-1.00*31
$GNVTG,,T,,M,0.098,N,0.182,K,A*37
$GNGGA,173009.00,3259.18724,N,09643.38140,W,1,12,0.83,208.2,M,-25.3,M,,*76
$PTH,71010*57
$PENV,71199,1004.94,227.70,-1.00*30
$PENV,71450,1004.94,227.62,-1.00*33
$PENV,71700,1004.93,227.92,-1.00*3D
$PENV,71951,1004.94,227.79,-1.00*35
$GNVTG,,T,,M,0.215,N,0.399,K,A*38
$GNGGA,173010.00,3259.18726,N,09643.38144,W,1,12,0.72,208.3,M,-25.3,M,,*77
$PTH,71999*5F
$PENV,72201,1004.95,227.51,-1.00*33
$PENV,72452,1004.94,227.72,-1.00*33
$PENV,72702,1004.94,227.65,-1.00*33
$PENV,72952,1004.94,227.71,-1.00*3D
$GNVTG,,T,,M,0.130,N,0.241,K,A*38
$GNGGA,173011.00,3259.18729,N,09643.38147,W,1,12,0.72,208.4,M,-25.3,M,,*7D
$PTH,73008*5C
$PENV,73203,1004.95,227.61,-1.00*33
$PENV,73453,1004.96,227.29,-1.00*3F
$PENV,73704,1004.95,227.36,-1.00*33
$PENV,73954,1004.96,227.27,-1.00*3B
$GNVTG,,T,,M,0.114,N,0.211,K,A*3B
$GNGGA,173012.00,3259.18733,N,09643.38146,W,1,12,0.81,208.4,M,-25.3,M,,*78
$PTH,74010*52
$PENV,74204,1004.95,227.51,-1.00*30
$PENV,74455,1004.94,227.84,-1.00*3B
$PENV,74705,1004.95,227.48,-1.00*3C
$PENV,74956,1004.94,227.75,-1.00*3B
$GNVTG,,T,,M,0.178,N,0.329,K,A*3B
$GNGGA,173013.00,3259.18731,N,09643.38149,W,1,12,0.72,208.7,M,-25.3,M,,*7B
$PTH,75013*50
$PENV,75206,1004.96,227.07,-1.00*33
$PENV,75457,1004.94,227.66,-1.00*34
$PENV,75707,1004.95,227.59,-1.00*3F
$PENV,75958,1004.95,227.45,-1.00*36
$GNVTG,,T,,M,0.159,N,0.294,K,A*3F
$GNGGA,173014.00,3259.18729,N,09643.38150,W,1,12,0.72,208.8,M,-25.3,M,,*72
$PTH,76028*5B
$PENV,76208,1004.94,227.75,-1.00*39
$PENV,76458,1004.96,227.21,-1.00*39
$PENV,76709,1004.95,227.37,-1.00*3A
$PENV,76959,1004.95,227.59,-1.00*39
$GNVTG,,T,,M,0.192,N,0.355,K,A*34
$GNGGA,173015.00,3259.18728,N,09643.38149,W,1,12,0.74,209.0,M,-25.3,M,,*75
$PTH,77009*59
$PENV,77210,1004.95,227.51,-1.00*36
$PENV,77460,1004.94,227.81,-1.00*3B
$PENV,77711,1004.95,227.54,-1.00*37
$PENV,77961,1004.94,227.64,-1.00*3C
$GNVTG,,T,,M,0.104,N,0.193,K,A*33
$GNGGA,173016.00,3259.18724,N,09643.38147,W,1,12,0.83,209.3,M,-25.3,M,,*7F
$PTH,78018*56
$PENV,78211,1004.94,227.85,-1.00*30
$PENV,78462,1004.94,227.72,-1.00*3A
$PENV,78712,1004.94,227.64,-1.00*39
$PENV,78963,1004.94,227.61,-1.00*34
$GNVTG,,T,,M,0.210,N,0.389,K,A*3C
$GNGGA,173017.00,3259.18724,N,09643.38141,W,1,12,0.72,209.4,M,-25.3,M,,*71
$PTH,79014*5B
$PENV,79213,1004.95,227.37,-1.00*3B
$PENV,79464,1004.94,227.65,-1.00*3B
$PENV,79714,1004.96,227.22,-1.00*3E
$PENV,79964,1004.95,227.46,-1.00*36
$GNVTG,,T,,M,0.246,N,0.455,K,A*39
$GNGGA,173018.00,3259.18725,N,09643.38145,W,1,12,0.69,209.7,M,-25.3,M,,*72
$PTH,80017*5E
$PENV,80215,1004.95,227.45,-1.00*3E
$PENV,80465,1004.94,227.74,-1.00*3C
$PENV,80716,1004.95,227.48,-1.00*35
$PENV,80966,1004.94,227.84,-1.00*3D
$GNVTG,,T,,M,0.042,N,0.078,K,A*34
$GNGGA,173019.00,3259.18727,N,09643.38149,W,1,12,0.72,209.9,M,-25.3,M,,*79
$PTH,81017*5F
$PENV,81217,1004.94,227.69,-1.00*32
$PENV,81467,1004.96,227.28,-1.00*34
$PENV,81718,1004.95,227.54,-1.00*37
$PENV,81968,1004.95,227.46,-1.00*3D
$GNVTG,,T,,M,0.261,N,0.483,K,A*37
$GNGGA,173020.00,3259.18727,N,09643.38145,W,1,12,0.72,210.0,M,-25.3,M,,*7E
$PTH,82012*59
$PENV,82218,1004.95,227.60,-1.00*36
$PENV,82469,1004.95,227.60,-1.00*36
$PENV,82719,1004.96,227.29,-1.00*3C
$PENV,82970,1004.95,227.45,-1.00*34
$GNVTG,,T,,M,0.040,N,0.074,K,A*3A
$GNGGA,173021.00,3259.18725,N,09643.38143,W,1,12,0.74,210.1,M,-25.3,M,,*7C
$PTH,83016*5C
$PENV,83220,1004.94,227.67,-1.00*3A
$PENV,83471,1004.94,227.73,-1.00*3D
$PENV,83721,1004.96,227.29,-1.00*36
$PENV,83972,1004.95,227.40,-1.00*32
$GNVTG,,T,,M,0.117,N,0.217,K,A*3E
$GNGGA,173022.00,3259.18726,N,09643.38144,W,1,12,0.69,210.2,M,-25.3,M,,*74
$PTH,84010*5D
$PENV,84222,1004.95,227.42,-1.00*39
$PENV,84472,1004.96,227.15,-1.00*3B
$PENV,84723,1004.95,227.58,-1.00*36
$PENV,84973,1004.95,227.55,-1.00*30
$GNVTG,,T,,M,0.359,N,0.665,K,A*37
$GNGGA,173023.00,3259.18729,N,09643.38149,W,1,12,0.69,210.2,M,-25.3,M,,*77
$PTH,85017*5B
$PENV,85224,1004.95,227.57,-1.00*3A
$PENV,85474,1004.94,227.77,-1.00*3A
$PENV,85725,1004.94,227.72,-1.00*38
$PENV,85975,1004.95,227.45,-1.00*36
$GNVTG,,T,,M,0.104,N,0.192,K,A*32
$GNGGA,173024.00,3259.18731,N,09643.38156,W,1,12,0.79,210.3,M,-25.3,M,,*77
$PTH,86017*58
$PENV,86225,1004.95,227.50,-1.00*3F
$PENV,86476,1004.95,227.35,-1.00*3C
$PENV,86726,1004.96,227.32,-1.00*3E
$PENV,86977,1004.94,227.75,-1.00*35
$GNVTG,,T,,M,0.111,N,0.205,K,A*3B
$GNGGA,173025.00,3259.18736,N,09643.38161,W,1,12,0.75,210.6,M,-25.3,M,,*7C
$PTH,87005*5A
$PENV,87227,1004.94,227.75,-1.00*3A
$PENV,87478,1004.95,227.58,-1.00*38
$PENV,87728,1004.94,227.64,-1.00*30
$PENV,87978,1004.94,227.66,-1.00*39
$GNVTG,,T,,M,0.122,N,0.226,K,A*3A
$GNGGA,173026.00,3259.18738,N,09643.38166,W,1,12,0.75,210.7,M,-25.3,M,,*77
$PTH,88014*55
$PENV,88229,1004.95,227.52,-1.00*3F
$PENV,88479,1004.94,227.66,-1.00*3A
$PENV,88730,1004.95,227.54,-1.00*34
$PENV,88980,1004.94,227.73,-1.00*35
$GNVTG,,T,,M,0.174,N,0.322,K,A*3C
$GNGGA,173027.00,3259.18739,N,09643.38170,W,1,12,0.65,210.7,M,-25.3,M,,*71
$PTH,89014*54
$PENV,89231,1004.94,227.62,-1.00*35
$PENV,89481,1004.94,227.71,-1.00*3A
$PENV,89731,1004.95,227.56,-1.00*36
$PENV,89982,1004.94,227.77,-1.00*32
$GNVTG,,T,,M,0.012,N,0.023,K,A*3F
$GNGGA,173028.00,3259.18739,N,09643.38175,W,1,12,0.68,210.8,M,-25.3,M,,*79
$PTH,90016*5E
$PENV,90232,1004.95,227.60,-1.00*3D
$PENV,90483,1004.94,227.64,-1.00*34
$PENV,90733,1004.94,227.75,-1.00*3C
$PENV,90984,1004.94,227.80,-1.00*34
$GNVTG,,T,,M,0.091,N,0.168,K,A*3A
$GNGGA,173029.00,3259.18737,N,09643.38178,W,1,12,0.68,211.0,M,-25.3,M,,*72
$PTH,91019*50
$PENV,91234,1004.95,227.36,-1.00*39
$PENV,91484,1004.94,227.67,-1.00*31
$PENV,91735,1004.94,227.65,-1.00*3A
$PENV,91985,1004.96,227.32,-1.00*3F
$GNVTG,,T,,M,0.077,N,0.143,K,A*3B
$GNGGA,173030.00,3259.18733,N,09643.38180,W,1,12,0.63,211.1,M,-25.3,M,,*73
$PTH,92011*5B
$PENV,92236,1004.96,227.31,-1.00*3C
$PENV,92486,1004.95,227.57,-1.00*32
$PENV,92737,1004.95,227.58,-1.00*34
$PENV,92987,1004.94,227.71,-1.00*3B
$GNVTG,259.43,T,,M,0.298,N,0.551,K,A*28
$GNGGA,173031.00,3259.18725,N,09643.38185,W,1,12,0.68,211.3,M,-25.3,M,,*79
$PTH,93014*5F
$PENV,93238,1004.95,227.58,-1.00*3F
$PENV,93488,1004.96,227.24,-1.00*3A
$PENV,93738,1004.94,227.68,-1.00*38
$PENV,93989,1004.96,227.10,-1.00*31
$GNVTG,,T,,M,0.248,N,0.459,K,A*3B
$GNGGA,173032.00,3259.18722,N,09643.38190,W,1,12,0.68,211.3,M,-25.3,M,,*79
$PTH,94004*59
$PENV,94239,1004.95,227.45,-1.00*35
$PENV,94490,1004.94,227.70,-1.00*37
$PENV,94740,1004.95,227.37,-1.00*3B
$PENV,94991,1004.94,227.64,-1.00*3E
$GNVTG,,T,,M,0.105,N,0.195,K,A*34
$GNGGA,173033.00,3259.18726,N,09643.38196,W,1,12,0.74,211.3,M,-25.3,M,,*77
$PTH,95021*5F
$PENV,95241,1004.94,227.77,-1.00*3B
$PENV,95491,1004.94,227.83,-1.00*3B
$PENV,95742,1004.95,227.35,-1.00*3A
$PENV,95992,1004.95,227.58,-1.00*32
$GNVTG,,T,,M,0.124,N,0.230,K,A*3B
$GNGGA,173034.00,3259.18727,N,09643.38199,W,1,12,0.69,211.2,M,-25.3,M,,*73
$PTH,96003*5C
$PENV,96243,1004.94,227.76,-1.00*3B
$PENV,96493,1004.94,227.87,-1.00*3E
$PENV,96744,1004.94,227.77,-1.00*38
$PENV,96994,1004.94,227.71,-1.00*3D
$GNVTG,,T,,M,0.125,N,0.231,K,A*3B
$GNGGA,173035.00,3259.18731,N,09643.38202,W,1,12,0.69,210.8,M,-25.3,M,,*7F
$PTH,97016*59
$PENV,97244,1004.93,228.13,-1.00*36
$PENV,97495,1004.94,227.80,-1.00*3E
$PENV,97745,1004.94,227.75,-1.00*3A
$PENV,97996,1004.95,227.51,-1.00*3D
$GNVTG,,T,,M,0.243,N,0.450,K,A*39
$GNGGA,173036.00,3259.18732,N,09643.38207,W,1,12,0.82,210.6,M,-25.3,M,,*71
$PTH,98003*52
$PENV,98246,1004.95,227.58,-1.00*3D
$PENV,98497,1004.94,227.86,-1.00*35
$PENV,98747,1004.94,227.88,-1.00*35
$PENV,98997,1004.93,227.98,-1.00*30
$GNVTG,,T,,M,0.066,N,0.122,K,A*3C
$GNGGA,173037.00,3259.18734,N,09643.38211,W,1,12,0.82,210.4,M,-25.3,M,,*73
$PTH,99007*57
$PENV,99248,1004.95,227.45,-1.00*3E
$PENV,99498,1004.94,227.64,-1.00*37
$PENV,99749,1004.95,227.50,-1.00*3E
$PENV,99999,1004.95,227.45,-1.00*39
$GNVTG,,T,,M,0.016,N,0.030,K,A*39
$GNGGA,173038.00,3259.18732,N,09643.38214,W,1,12,0.73,210.3,M,-25.3,M,,*76
$PTH,100008*69
$PENV,100250,1004.95,227.61,-1.00*00
$PENV,100500,1004.94,227.69,-1.00*0B
$PENV,100750,1004.94,227.77,-1.00*03
$PENV,101001,1004.95,227.54,-1.00*01
$GNVTG,,T,,M,0.156,N,0.289,K,A*3C
$GNGGA,173039.00,3259.18731,N,09643.38216,W,1,12,0.71,210.3,M,-25.3,M,,*74
$PTH,101014*65
$PENV,101251,1004.93,227.98,-1.00*00
$PENV,101502,1004.94,227.84,-1.00*0B
$PENV,101752,1004.94,227.69,-1.00*0F
$PENV,102003,1004.94,227.75,-1.00*02
$GNVTG,,T,,M,0.067,N,0.123,K,A*3C
$GNGGA,173040.00,3259.18730,N,09643.38217,W,1,12,0.72,210.2,M,-25.3,M,,*78
$PTH,102016*64
$PENV,102253,1004.94,227.63,-1.00*02
$PENV,102503,1004.95,227.39,-1.00*0E
$PENV,102754,1004.95,227.48,-1.00*08
$PENV,103004,1004.94,227.77,-1.00*06
$GNVTG,,T,,M,0.117,N,0.217,K,A*3E
$GNGGA,173041.00,3259.18727,N,09643.38217,W,1,12,0.73,210.3,M,-25.3,M,,*7F
$PTH,103015*66
$PENV,103255,1004.94,227.72,-1.00*05
$PENV,103505,1004.94,227.82,-1.00*08
$PENV,103756,1004.94,227.84,-1.00*0A
$PENV,104006,1004.94,227.65,-1.00*00
$GNVTG,,T,,M,0.052,N,0.096,K,A*35
$GNGGA,173042.00,3259.18723,N,09643.38217,W,1,12,0.69,210.4,M,-25.3,M,,*74
$PTH,104007*62
$PENV,104256,1004.96,227.11,-1.00*06
$PENV,104507,1004.94,227.78,-1.00*08
$PENV,104757,1004.94,227.73,-1.00*04
$PENV,105008,1004.96,227.32,-1.00*0F
$GNVTG,,T,,M,0.083,N,0.154,K,A*36
$GNGGA,173043.00,3259.18720,N,09643.38219,W,1,12,0.72,210.4,M,-25.3,M,,*72
$PTH,105010*65
$PENV,105258,1004.93,227.93,-1.00*06
$PENV,105509,1004.94,227.63,-1.00*0D
$PENV,105759,1004.95,227.41,-1.00*0B
$PENV,106009,1004.94,227.71,-1.00*08
$GNVTG,,T,,M,0.098,N,0.181,K,A*34
$GNGGA,173044.00,3259.18717,N,09643.38221,W,1,12,0.72,210.2,M,-25.3,M,,*7C
$PTH,106012*64
$PENV,106260,1004.94,227.80,-1.00*0B
$PENV,106510,1004.94,227.69,-1.00*0C
$PENV,106761,1004.95,227.57,-1.00*04
$PENV,107011,1004.93,228.06,-1.00*08
$GNVTG,,T,,M,0.077,N,0.143,K,A*3B
$GNGGA,173045.00,3259.18713,N,09643.38222,W,1,12,0.69,210.2,M,-25.3,M,,*70
$PTH,107013*64
$PENV,107262,1004.96,227.29,-1.00*09
$PENV,107512,1004.94,227.85,-1.00*0D
$PENV,107762,1004.94,227.65,-1.00*06
$GNVTG,,T,,M,0.104,N,0.194,K,A*34
$GNGGA,173046.00,3259.18711,N,09643.38225,W,1,12,0.72,210.2,M,-25.3,M,,*7C
$PTH,108005*6C
$PENV,108013,1004.93,227.97,-1.00*02
$PENV,108263,1004.94,227.73,-1.00*0A
$PENV,108514,1004.95,227.58,-1.00*05
$PENV,108764,1004.94,227.67,-1.00*0D
$PENV,109015,1004.93,227.90,-1.00*02
$GNVTG,,T,,M,0.101,N,0.187,K,A*33
$GNGGA,173047.00,3259.18713,N,09643.38226,W,1,12,0.72,210.2,M,-25.3,M,,*7C
$PTH,109020*6A
$PENV,109265,1004.93,228.15,-1.00*05
$PENV,109515,1004.96,227.31,-1.00*09
$PENV,109766,1004.95,227.59,-1.00*02
$GNVTG,,T,,M,0.286,N,0.529,K,A*3F
$GNGGA,173048.00,3259.18711,N,09643.38228,W,1,12,0.65,210.1,M,-25.3,M,,*7A
$PTH,110010*61
$PENV,110016,1004.94,227.75,-1.00*05
$PENV,110267,1004.94,227.85,-1.00*0E
$PENV,110517,1004.94,227.69,-1.00*0C
$PENV,110768,1004.94,227.71,-1.00*0F
$GNVTG,,T,,M,0.086,N,0.160,K,A*34
$GNGGA,173049.00,3259.18705,N,09643.38231,W,1,12,0.72,210.1,M,-25.3,M,,*70
$PTH,111012*62
$PENV,111018,1004.94,227.63,-1.00*0D
$PENV,111268,1004.95,227.58,-1.00*01
$PENV,111519,1004.94,227.87,-1.00*03
$PENV,111769,1004.94,227.87,-1.00*06
$GNVTG,,T,,M,0.155,N,0.288,K,A*3E
$GNGGA,173050.00,3259.18707,N,09643.38233,W,1,12,0.72,210.1,M,-25.3,M,,*78
$PTH,112013*60
$PENV,112020,1004.93,227.99,-1.00*07
$PENV,112270,1004.92,228.22,-1.00*0E
$PENV,112521,1004.93,228.02,-1.00*0E
$PENV,112771,1004.94,227.64,-1.00*01
$GNVTG,,T,,M,0.007,N,0.012,K,A*39
$GNGGA,173051.00,3259.18708,N,09643.38233,W,1,12,0.69,209.9,M,-25.3,M,,*7C
$PTH,113014*66
$PENV,113022,1004.94,227.87,-1.00*0C
$PENV,113272,1004.92,228.20,-1.00*0F
$PENV,113522,1004.94,227.86,-1.00*08
$PENV,113773,1004.93,227.99,-1.00*07
$GNVTG,,T,,M,0.162,N,0.300,K,A*3B
$GNGGA,173052.00,3259.18709,N,09643.38233,W,1,12,0.72,209.7,M,-25.3,M,,*7A
$PTH,114009*6D
$PENV,114023,1004.94,227.83,-1.00*0E
$PENV,114274,1004.93,227.90,-1.00*0B
$PENV,114524,1004.95,227.53,-1.00*00
$PENV,114775,1004.93,228.01,-1.00*08
$GNVTG,,T,,M,0.092,N,0.170,K,A*30
$GNGGA,173053.00,3259.18709,N,09643.38236,W,1,12,0.75,209.6,M,-25.3,M,,*78
$PTH,115014*60
$PENV,115025,1004.93,228.06,-1.00*0C
$PENV,115275,1004.94,227.64,-1.00*07
$PENV,115526,1004.94,227.83,-1.00*0F
$PENV,115776,1004.92,228.21,-1.00*09
$GNVTG,,T,,M,0.109,N,0.203,K,A*34
$GNGGA,173054.00,3259.18712,N,09643.38243,W,1,12,0.64,209.7,M,-25.3,M,,*76
$PTH,116017*60
$PENV,116027,1004.92,228.23,-1.00*0B
$PENV,116277,1004.94,227.82,-1.00*0E
$PENV,116528,1004.92,228.34,-1.00*07
$PENV,116778,1004.95,227.58,-1.00*02
$GNVTG,,T,,M,0.083,N,0.154,K,A*36
$GNGGA,173055.00,3259.18712,N,09643.38248,W,1,12,0.90,209.7,M,-25.3,M,,*77
$PTH,117008*6F
$PENV,117028,1004.93,227.96,-1.00*05
$PENV,117279,1004.94,227.70,-1.00*0C
$PENV,117529,1004.93,228.00,-1.00*01
$PENV,117780,1004.94,227.84,-1.00*04
$GNVTG,,T,,M,0.126,N,0.233,K,A*3A
$GNGGA,173056.00,3259.18711,N,09643.38250,W,1,12,0.90,209.9,M,-25.3,M,,*70
$PTH,118009*61
$PENV,118030,1004.95,227.50,-1.00*0F
$PENV,118281,1004.94,227.86,-1.00*0D
$PENV,118531,1004.94,227.65,-1.00*0C
$PENV,118781,1004.97,227.03,-1.00*06
$GNVTG,,T,,M,0.118,N,0.219,K,A*3F
$GNGGA,173057.00,3259.18713,N,09643.38250,W,1,12,0.83,209.9,M,-25.3,M,,*71
$PTH,119004*6D
$PENV,119032,1004.94,227.70,-1.00*0F
$PENV,119282,1004.94,227.67,-1.00*00
$PENV,119533,1004.95,227.59,-1.00*01
$PENV,119783,1004.94,227.73,-1.00*01
$GNVTG,,T,,M,0.203,N,0.377,K,A*3F
$GNGGA,173058.00,3259.18713,N,09643.38250,W,1,12,0.83,210.1,M,-25.3,M,,*7E
$PTH,120009*6A
$PENV,120034,1004.94,227.62,-1.00*00
$PENV,120284,1004.93,227.97,-1.00*04
$PENV,120535,1004.94,227.69,-1.00*0F
$PENV,120785,1004.93,228.02,-1.00*03
$GNVTG,,T,,M,0.249,N,0.462,K,A*32
$GNGGA,173059.00,3259.18720,N,09643.38249,W,1,12,0.83,210.0,M,-25.3,M,,*76
$PTH,120998*6B
$PENV,121035,1004.93,227.90,-1.00*0A
$PENV,121286,1004.92,228.28,-1.00*0D
$PENV,121536,1004.93,227.89,-1.00*04
$PENV,121787,1004.93,228.13,-1.00*00
$GNVTG,,T,,M,0.090,N,0.167,K,A*34
$GNGGA,173100.00,3259.18723,N,09643.38249,W,1,12,0.88,210.0,M,-25.3,M,,*73
$PTH,122025*66
$PENV,122037,1004.93,227.94,-1.00*0F
$PENV,122288,1004.93,228.15,-1.00*0F
$PENV,122538,1004.92,228.23,-1.00*07
$PENV,122788,1004.93,228.10,-1.00*0F
$GNVTG,,T,,M,0.187,N,0.346,K,A*32
$GNGGA,173101.00,3259.18724,N,09643.38251,W,1,12,0.83,210.0,M,-25.3,M,,*77
$PTH,123022*60
$PENV,123039,1004.93,228.14,-1.00*07
$PENV,123289,1004.92,228.19,-1.00*02
$PENV,123540,1004.94,227.87,-1.00*0E
$PENV,123790,1004.92,228.16,-1.00*00
$GNVTG,,T,,M,0.156,N,0.289,K,A*3C
$GNGGA,173102.00,3259.18722,N,09643.38254,W,1,12,0.83,210.1,M,-25.3,M,,*76
$PTH,124026*63
$PENV,124041,1004.95,227.51,-1.00*07
$PENV,124291,1004.94,227.82,-1.00*07
$PENV,124541,1004.95,227.34,-1.00*01
$PENV,124792,1004.95,227.51,-1.00*0E
$GNVTG,,T,,M,0.070,N,0.129,K,A*30
$GNGGA,173103.00,3259.18724,N,09643.38252,W,1,12,0.81,210.1,M,-25.3,M,,*75
$PTH,125009*6F
$PENV,125042,1004.93,227.97,-1.00*09
$PENV,125293,1004.94,227.86,-1.00*00
$PENV,125543,1004.93,228.04,-1.00*08
$PENV,125794,1004.94,227.78,-1.00*03
$GNVTG,,T,,M,0.042,N,0.078,K,A*34
$GNGGA,173104.00,3259.18726,N,09643.38249,W,1,12,0.90,209.9,M,-25.3,M,,*7A
$PTH,126014*60
$PENV,126044,1004.93,227.89,-1.00*03
$PENV,126294,1004.93,228.03,-1.00*01
$PENV,126545,1004.92,228.18,-1.00*01
$PENV,126795,1004.93,227.93,-1.00*03
$GNVTG,,T,,M,0.099,N,0.183,K,A*37
$GNGGA,173105.00,3259.18727,N,09643.38247,W,1,12,0.90,209.8,M,-25.3,M,,*75
$PTH,127006*62
$PENV,127046,1004.93,228.10,-1.00*0F
$PENV,127296,1004.94,227.77,-1.00*09
$PENV,127547,1004.95,227.61,-1.00*04
$PENV,127797,1004.93,228.06,-1.00*03
$GNVTG,,T,,M,0.098,N,0.181,K,A*34
$GNGGA,173106.00,3259.18729,N,09643.38246,W,1,12,0.88,209.8,M,-25.3,M,,*70
$PTH,128009*62
$PENV,128048,1004.94,227.64,-1.00*05
$PENV,128298,1004.93,228.06,-1.00*06
$PENV,128548,1004.93,227.91,-1.00*0D
$PENV,128799,1004.92,228.20,-1.00*07
$GNVTG,,T,,M,0.213,N,0.395,K,A*32
$GNGGA,173107.00,3259.18733,N,09643.38247,W,1,12,0.99,209.8,M,-25.3,M,,*7B
$PTH,129011*6A
$PENV,129049,1004.93,227.94,-1.00*0D
$PENV,129300,1004.95,227.44,-1.00*08
$PENV,129550,1004.93,227.90,-1.00*04
$PENV,129800,1004.94,227.67,-1.00*03
$GNVTG,,T,,M,0.119,N,0.221,K,A*35
$GNGGA,173108.00,3259.18739,N,09643.38248,W,1,12,0.90,209.6,M,-25.3,M,,*76
$PTH,130012*61
$PENV,130051,1004.93,228.03,-1.00*0D
$PENV,130301,1004.92,228.19,-1.00*01
$PENV,130552,1004.93,227.95,-1.00*0B
$PENV,130802,1004.94,227.83,-1.00*03
$GNVTG,,T,,M,0.151,N,0.280,K,A*32
$GNGGA,173109.00,3259.18745,N,09643.38248,W,1,12,0.69,209.6,M,-25.3,M,,*7A
$PTH,131012*60
$PENV,131053,1004.94,227.63,-1.00*00
$PENV,131303,1004.94,227.80,-1.00*0B
$PENV,131554,1004.93,228.00,-1.00*0F
$PENV,131804,1004.92,228.41,-1.00*03
$GNVTG,,T,,M,0.053,N,0.099,K,A*3B
$GNGGA,173110.00,3259.18751,N,09643.38244,W,1,12,0.83,209.5,M,-25.3,M,,*7C
$PTH,132016*67
$PENV,132054,1004.93,227.92,-1.00*0D
$PENV,132305,1004.93,227.95,-1.00*0D
$PENV,132555,1004.94,227.71,-1.00*03
$PENV,132806,1004.93,227.90,-1.00*00
$GNVTG,,T,,M,0.126,N,0.234,K,A*3D
$GNGGA,173111.00,3259.18755,N,09643.38244,W,1,12,0.83,209.6,M,-25.3,M,,*7A
$PTH,133006*67
$PENV,133056,1004.93,227.97,-1.00*0B
$PENV,133307,1004.93,228.05,-1.00*08
$PENV,133557,1004.94,227.84,-1.00*0A
$PENV,133807,1004.93,227.99,-1.00*09
$GNVTG,,T,,M,0.035,N,0.064,K,A*39
$GNGGA,173112.00,3259.18758,N,09643.38244,W,1,12,0.68,209.7,M,-25.3,M,,*70
$PTH,134013*64
$PENV,134058,1004.93,227.90,-1.00*05
$PENV,134308,1004.93,227.90,-1.00*03
$PENV,134559,1004.94,227.71,-1.00*09
$PENV,134809,1004.93,227.89,-1.00*01
$GNVTG,,T,,M,0.135,N,0.249,K,A*35
$GNGGA,173113.00,3259.18762,N,09643.38241,W,1,12,0.83,209.5,M,-25.3,M,,*7A
$PTH,135013*65
$PENV,135060,1004.93,228.11,-1.00*09
$PENV,135310,1004.93,228.09,-1.00*04
$PENV,135561,1004.93,227.95,-1.00*0E
$PENV,135811,1004.93,227.97,-1.00*06
$GNVTG,,T,,M,0.171,N,0.316,K,A*3E
$GNGGA,173114.00,3259.18765,N,09643.38241,W,1,12,0.70,209.6,M,-25.3,M,,*75
$PTH,136003*67
$PENV,136061,1004.93,228.03,-1.00*08
$PENV,136312,1004.94,227.65,-1.00*07
$PENV,136562,1004.92,228.16,-1.00*0B
$PENV,136813,1004.93,228.03,-1.00*05
$GNVTG,,T,,M,0.022,N,0.040,K,A*39
$GNGGA,173115.00,3259.18767,N,09643.38239,W,1,12,0.71,209.7,M,-25.3,M,,*79
$PTH,137018*6C
$PENV,137063,1004.94,227.76,-1.00*01
$PENV,137313,1004.92,228.35,-1.00*0B
$PENV,137564,1004.93,228.10,-1.00*0B
$PENV,137814,1004.93,227.90,-1.00*06
$GNVTG,,T,,M,0.079,N,0.145,K,A*33
$GNGGA,173116.00,3259.18768,N,09643.38235,W,1,12,0.75,209.6,M,-25.3,M,,*7C
$PTH,138006*6C
$PENV,138065,1004.93,228.03,-1.00*02
$PENV,138315,1004.93,228.07,-1.00*02
$PENV,138566,1004.92,228.20,-1.00*04
$PENV,138816,1004.94,227.63,-1.00*00
$GNVTG,,T,,M,0.052,N,0.097,K,A*34
$GNGGA,173117.00,3259.18766,N,09643.38234,W,1,12,0.75,209.7,M,-25.3,M,,*73
$PTH,139011*6B
$PENV,139067,1004.92,228.28,-1.00*09
$PENV,139317,1004.93,227.99,-1.00*09
$PENV,139567,1004.93,227.93,-1.00*02
$PENV,139818,1004.93,228.05,-1.00*07
$GNVTG,,T,,M,0.140,N,0.259,K,A*36
$GNGGA,173118.00,3259.18762,N,09643.38234,W,1,12,0.68,209.7,M,-25.3,M,,*74
$PTH,140013*67
$PENV,140068,1004.92,228.30,-1.00*01
$PENV,140319,1004.93,228.15,-1.00*02
$PENV,140569,1004.92,228.23,-1.00*07
$PENV,140820,1004.94,227.84,-1.00*03
$GNVTG,,T,,M,0.091,N,0.168,K,A*3A
$GNGGA,173119.00,3259.18761,N,09643.38236,W,1,12,0.75,209.7,M,-25.3,M,,*78
$PTH,141005*61
$PENV,141070,1004.93,228.16,-1.00*0C
$PENV,141321,1004.92,228.22,-1.00*0D
$PENV,141571,1004.93,228.01,-1.00*0E
$PENV,141821,1004.93,228.05,-1.00*02
$GNVTG,,T,,M,0.162,N,0.300,K,A*3B
$GNGGA,173120.00,3259.18760,N,09643.38233,W,1,12,0.68,209.6,M,-25.3,M,,*7B
$PTH,142010*66
$PENV,142072,1004.92,228.29,-1.00*00
$PENV,142322,1004.93,227.92,-1.00*08
$PENV,142573,1004.94,227.77,-1.00*06
$PENV,142823,1004.96,227.32,-1.00*0D
$GNVTG,,T,,M,0.134,N,0.249,K,A*34
$GNGGA,173121.00,3259.18759,N,09643.38232,W,1,12,0.65,209.7,M,-25.3,M,,*7D
$PTH,143002*64
$PENV,143074,1004.95,227.59,-1.00*08
$PENV,143324,1004.94,227.83,-1.00*08
$PENV,143574,1004.94,227.62,-1.00*04
$PENV,143825,1004.91,228.44,-1.00*03
$GNVTG,,T,,M,0.113,N,0.209,K,A*35
$GNGGA,173122.00,3259.18760,N,09643.38233,W,1,12,0.68,209.6,M,-25.3,M,,*79
$PTH,144004*65
$PENV,144075,1004.93,228.10,-1.00*0A
$PENV,144326,1004.93,228.03,-1.00*0D
$PENV,144576,1004.92,228.40,-1.00*08
$PENV,144827,1004.92,228.31,-1.00*07
$GNVTG,,T,,M,0.124,N,0.229,K,A*33
$GNGGA,173123.00,3259.18759,N,09643.38237,W,1,12,0.68,209.6,M,-25.3,M,,*76
$PTH,144997*66
$PENV,145077,1004.92,228.23,-1.00*08
$PENV,145328,1004.91,228.47,-1.00*00
$PENV,145578,1004.91,228.61,-1.00*07
$PENV,145828,1004.92,228.22,-1.00*0B
$GNVTG,,T,,M,0.035,N,0.064,K,A*39
$GNGGA,173124.00,3259.18757,N,09643.38239,W,1,12,0.75,209.5,M,-25.3,M,,*7E
$PTH,145996*66
$PENV,146079,1004.91,228.47,-1.00*04
$PENV,146329,1004.92,228.31,-1.00*00
$PENV,146580,1004.90,228.75,-1.00*07
$PENV,146830,1004.92,228.19,-1.00*09
$GNVTG,,T,,M,0.225,N,0.416,K,A*3B
$GNGGA,173125.00,3259.18757,N,09643.38240,W,1,12,0.68,209.5,M,-25.3,M,,*7D
$PTH,147004*66
$PENV,147081,1004.93,228.10,-1.00*02
$PENV,147331,1004.92,228.26,-1.00*0E
$PENV,147581,1004.93,228.11,-1.00*06
$PENV,147832,1004.92,228.34,-1.00*05
$GNVTG,,T,,M,0.084,N,0.156,K,A*33
$GNGGA,173126.00,3259.18757,N,09643.38242,W,1,12,0.68,209.4,M,-25.3,M,,*7D
$PTH,148007*6A
$PENV,148082,1004.92,228.32,-1.00*0F
$PENV,148333,1004.92,228.30,-1.00*04
$PENV,148583,1004.92,228.36,-1.00*0F
$PENV,148834,1004.91,228.54,-1.00*09
$GNVTG,,T,,M,0.051,N,0.094,K,A*34
$GNGGA,173127.00,3259.18754,N,09643.38243,W,1,12,0.71,209.3,M,-25.3,M,,*71
$PTH,149005*69
$PENV,149084,1004.91,228.52,-1.00*0D
$PENV,149334,1004.92,228.30,-1.00*02
$PENV,149585,1004.91,228.56,-1.00*0D
$PENV,149835,1004.91,228.55,-1.00*08
$GNVTG,,T,,M,0.102,N,0.189,K,A*3E
$GNGGA,173128.00,3259.18753,N,09643.38245,W,1,12,0.68,209.3,M,-25.3,M,,*77
$PTH,150012*67
$PENV,150086,1004.92,228.20,-1.00*01
$PENV,150336,1004.91,228.57,-1.00*0A
$PENV,150587,1004.92,228.29,-1.00*0C
$PENV,150837,1004.90,228.74,-1.00*00
$GNVTG,,T,,M,0.100,N,0.186,K,A*33
$GNGGA,173129.00,3259.18752,N,09643.38247,W,1,12,0.68,209.5,M,-25.3,M,,*73
$PTH,151013*67
$PENV,151087,1004.91,228.47,-1.00*03
$PENV,151338,1004.90,228.77,-1.00*06
$PENV,151588,1004.92,228.17,-1.00*0F
$PENV,151839,1004.93,228.14,-1.00*0A
$GNVTG,,T,,M,0.107,N,0.199,K,A*3A
$GNGGA,173130.00,3259.18747,N,09643.38247,W,1,12,0.69,209.6,M,-25.3,M,,*7D
$PTH,152022*66
$PENV,152089,1004.90,228.75,-1.00*0E
$PENV,152340,1004.92,228.40,-1.00*0C
$PENV,152590,1004.90,228.90,-1.00*08
$PENV,152840,1004.91,228.70,-1.00*07
$GNVTG,,T,,M,0.249,N,0.460,K,A*30
$GNGGA,173131.00,3259.18740,N,09643.38247,W,1,12,0.69,209.8,M,-25.3,M,,*75
$PTH,153030*64
$PENV,153091,1004.90,228.95,-1.00*08
$PENV,153341,1004.91,228.55,-1.00*0B
$PENV,153592,1004.92,228.41,-1.00*05
$PENV,153842,1004.92,228.42,-1.00*06
$GNVTG,,T,,M,0.213,N,0.394,K,A*33
$GNGGA,173132.00,3259.18734,N,09643.38245,W,1,12,0.68,209.8,M,-25.3,M,,*76
$PTH,154020*62
$PENV,154093,1004.90,228.88,-1.00*01
$PENV,154343,1004.91,228.62,-1.00*0A
$PENV,154594,1004.92,228.42,-1.00*07
$PENV,154844,1004.91,228.66,-1.00*02
$GNVTG,,T,,M,0.132,N,0.245,K,A*3E
$GNGGA,173133.00,3259.18730,N,09643.38244,W,1,12,0.68,209.9,M,-25.3,M,,*73
$PTH,155008*69
$PENV,155094,1004.91,228.66,-1.00*06
$PENV,155345,1004.91,228.67,-1.00*08
$PENV,155595,1004.91,228.54,-1.00*03
$PENV,155846,1004.91,228.54,-1.00*00
$GNVTG,,T,,M,0.169,N,0.313,K,A*32
$GNGGA,173134.00,3259.18726,N,09643.38244,W,1,12,0.76,209.9,M,-25.3,M,,*7C
$PTH,156022*62
$PENV,156096,1004.90,228.89,-1.00*07
$PENV,156347,1004.91,228.69,-1.00*07
$PENV,156597,1004.89,229.14,-1.00*0E
$PENV,156847,1004.90,228.92,-1.00*09
$GNVTG,,T,,M,0.037,N,0.069,K,A*36
$GNGGA,173135.00,3259.18725,N,09643.38244,W,1,12,0.69,209.9,M,-25.3,M,,*70
$PTH,157018*6A
$PENV,157098,1004.91,228.49,-1.00*05
$PENV,157348,1004.91,228.61,-1.00*01
$PENV,157599,1004.90,228.88,-1.00*0D
$PENV,157849,1004.91,228.57,-1.00*0E
$GNVTG,,T,,M,0.209,N,0.387,K,A*3A
$GNGGA,173136.00,3259.18721,N,09643.38249,W,1,12,0.65,210.0,M,-25.3,M,,*77
$PTH,158012*6F
$PENV,158100,1004.91,228.44,-1.00*07
$PENV,158350,1004.90,228.76,-1.00*00
$PENV,158600,1004.89,229.05,-1.00*0D
$PENV,158851,1004.91,228.68,-1.00*04
$GNVTG,,T,,M,0.092,N,0.170,K,A*30
$GNGGA,173137.00,3259.18719,N,09643.38253,W,1,12,0.68,209.9,M,-25.3,M,,*7A
$PTH,159012*6E
$PENV,159101,1004.89,229.05,-1.00*0A
$PENV,159352,1004.91,228.68,-1.00*0D
$PENV,159602,1004.90,228.74,-1.00*01
$PENV,159853,1004.91,228.55,-1.00*09
$GNVTG,,T,,M,0.114,N,0.212,K,A*38
$GNGGA,173138.00,3259.18717,N,09643.38256,W,1,12,0.68,209.9,M,-25.3,M,,*7E
$PTH,160012*64
$PENV,160103,1004.91,228.64,-1.00*0D
$PENV,160353,1004.91,228.61,-1.00*0F
$PENV,160604,1004.90,228.75,-1.00*0C
$PENV,160854,1004.91,228.60,-1.00*02
$GNVTG,,T,,M,0.035,N,0.064,K,A*39
$GNGGA,173139.00,3259.18716,N,09643.38258,W,1,12,0.73,210.0,M,-25.3,M,,*7B
$PTH,161005*63
$PENV,161105,1004.92,228.36,-1.00*0E
$PENV,161355,1004.90,228.97,-1.00*00
$PENV,161606,1004.89,229.01,-1.00*05
$PENV,161856,1004.90,228.79,-1.00*08
$GNVTG,,T,,M,0.088,N,0.162,K,A*38
$GNGGA,173140.00,3259.18717,N,09643.38261,W,1,12,0.68,210.1,M,-25.3,M,,*75
$PTH,162012*66
$PENV,162107,1004.90,228.85,-1.00*05
$PENV,162357,1004.92,228.34,-1.00*0A
$PENV,162607,1004.90,228.75,-1.00*0D
$PENV,162858,1004.90,228.91,-1.00*03
$GNVTG,,T,,M,0.064,N,0.119,K,A*36
$GNGGA,173141.00,3259.18717,N,09643.38266,W,1,12,0.68,210.0,M,-25.3,M,,*72
$PTH,163007*63
$PENV,163108,1004.91,228.62,-1.00*03
$PENV,163359,1004.90,228.79,-1.00*0E
$PENV,163609,1004.90,228.89,-1.00*01
$PENV,163860,1004.89,229.13,-1.00*0A
$GNVTG,,T,,M,0.108,N,0.200,K,A*36
$GNGGA,173142.00,3259.18717,N,09643.38271,W,1,12,0.69,210.1,M,-25.3,M,,*77
$PTH,164009*6A
$PENV,164110,1004.90,228.88,-1.00*08
$PENV,164361,1004.91,228.51,-1.00*09
$PENV,164611,1004.91,228.56,-1.00*0C
$PENV,164862,1004.91,228.60,-1.00*03
$GNVTG,317.45,T,,M,0.358,N,0.663,K,A*2A
$GNGGA,173143.00,3259.18722,N,09643.38275,W,1,12,0.68,210.1,M,-25.3,M,,*75
$PTH,165014*67
$PENV,165112,1004.92,228.31,-1.00*0B
$PENV,165363,1004.92,228.36,-1.00*08
$PENV,165613,1004.92,228.38,-1.00*04
$PENV,165863,1004.92,228.25,-1.00*01
$GNVTG,,T,,M,0.139,N,0.258,K,A*39
$GNGGA,173144.00,3259.18725,N,09643.38278,W,1,12,0.75,210.2,M,-25.3,M,,*77
$PTH,166006*67
$PENV,166114,1004.90,228.83,-1.00*05
$PENV,166364,1004.90,228.97,-1.00*05
$PENV,166615,1004.90,228.92,-1.00*03
$PENV,166865,1004.91,228.59,-1.00*0C
$GNVTG,,T,,M,0.196,N,0.363,K,A*35
$GNGGA,173145.00,3259.18725,N,09643.38282,W,1,12,0.67,210.3,M,-25.3,M,,*71
$PTH,167007*67
$PENV,167116,1004.92,228.29,-1.00*04
$PENV,167366,1004.90,228.85,-1.00*05
$PENV,167617,1004.90,228.91,-1.00*03
$PENV,167867,1004.89,229.22,-1.00*0B
$GNVTG,,T,,M,0.112,N,0.207,K,A*3A
$GNGGA,173146.00,3259.18726,N,09643.38282,W,1,12,0.68,210.2,M,-25.3,M,,*7F
$PTH,168002*6D
$PENV,168117,1004.90,228.71,-1.00*05
$PENV,168368,1004.91,228.57,-1.00*0A
$PENV,168618,1004.91,228.66,-1.00*0A
$PENV,168869,1004.93,227.97,-1.00*01
$GNVTG,,T,,M,0.096,N,0.179,K,A*3D
$GNGGA,173147.00,3259.18725,N,09643.38285,W,1,12,0.68,210.1,M,-25.3,M,,*79
$PTH,169001*6F
$PENV,169119,1004.91,228.49,-1.00*00
$PENV,169370,1004.91,228.70,-1.00*07
$PENV,169620,1004.90,228.80,-1.00*09
$PENV,169871,1004.92,228.41,-1.00*0C
$GNVTG,,T,,M,0.087,N,0.162,K,A*37
$GNGGA,173148.00,3259.18724,N,09643.38287,W,1,12,0.75,210.2,M,-25.3,M,,*7A
$PTH,169990*6E
$PENV,170121,1004.90,228.73,-1.00*0B
$PENV,170372,1004.90,228.72,-1.00*0E
$PENV,170622,1004.92,228.27,-1.00*0C
$PENV,170873,1004.91,228.61,-1.00*07
$GNVTG,,T,,M,0.195,N,0.361,K,A*34
$GNGGA,173149.00,3259.18728,N,09643.38288,W,1,12,0.68,210.4,M,-25.3,M,,*72
$PTH,171010*66
$PENV,171123,1004.91,228.54,-1.00*0C
$PENV,171373,1004.91,228.69,-1.00*05
$PENV,171624,1004.91,228.59,-1.00*01
$PENV,171874,1004.92,228.42,-1.00*03
$GNVTG,,T,,M,0.268,N,0.497,K,A*3B
$GNGGA,173150.00,3259.18731,N,09643.38289,W,1,12,0.77,210.3,M,-25.3,M,,*7A
$PTH,171996*61
$PENV,172125,1004.90,228.80,-1.00*01
$PENV,172375,1004.90,228.72,-1.00*0B
$PENV,172626,1004.92,228.41,-1.00*0A
$PENV,172876,1004.90,228.92,-1.00*0D
$GNVTG,,T,,M,0.128,N,0.238,K,A*3F
$GNGGA,173151.00,3259.18732,N,09643.38289,W,1,12,0.75,210.4,M,-25.3,M,,*7D
$PTH,173002*67
$PENV,173127,1004.91,228.64,-1.00*09
$PENV,173377,1004.91,228.63,-1.00*09
$PENV,173627,1004.91,228.69,-1.00*03
$PENV,173878,1004.89,229.04,-1.00*04
$GNVTG,,T,,M,0.154,N,0.286,K,A*31
$GNGGA,173152.00,3259.18729,N,09643.38289,W,1,12,0.69,210.6,M,-25.3,M,,*7B
$PTH,174007*65
$PENV,174128,1004.89,229.23,-1.00*0A
$PENV,174379,1004.90,228.95,-1.00*08
$PENV,174629,1004.89,229.14,-1.00*08
$PENV,174880,1004.88,229.33,-1.00*01
$GNVTG,,T,,M,0.166,N,0.308,K,A*37
$GNGGA,173153.00,3259.18730,N,09643.38287,W,1,12,0.69,210.7,M,-25.3,M,,*7D
$PTH,175008*6B
$PENV,175130,1004.89,229.20,-1.00*01
$PENV,175381,1004.89,229.06,-1.00*0D
$PENV,175631,1004.91,228.55,-1.00*0D
$PENV,175881,1004.91,228.54,-1.00*09
$GNVTG,,T,,M,0.090,N,0.166,K,A*35
$GNGGA,173154.00,3259.18725,N,09643.38285,W,1,12,0.75,210.6,M,-25.3,M,,*70
$PTH,176008*68
$PENV,176132,1004.90,228.74,-1.00*08
$PENV,176382,1004.90,228.83,-1.00*09
$PENV,176633,1004.91,228.71,-1.00*0A
$PENV,176883,1004.90,228.92,-1.00*03
$GNVTG,,T,,M,0.071,N,0.131,K,A*38
$GNGGA,173155.00,3259.18723,N,09643.38285,W,1,12,0.68,210.6,M,-25.3,M,,*7B
$PTH,177006*67
$PENV,177134,1004.90,228.87,-1.00*03
$PENV,177384,1004.89,229.01,-1.00*0D
$PENV,177635,1004.92,228.40,-1.00*0C
$PENV,177885,1004.90,228.76,-1.00*0E
$GNVTG,,T,,M,0.133,N,0.246,K,A*3C
$GNGGA,173156.00,3259.18722,N,09643.38288,W,1,12,0.68,210.8,M,-25.3,M,,*7A
$PTH,178008*66
$PENV,178136,1004.90,228.96,-1.00*0E
$PENV,178386,1004.90,228.77,-1.00*08
$PENV,178636,1004.91,228.43,-1.00*00
$PENV,178887,1004.90,228.92,-1.00*09
$GNVTG,,T,,M,0.149,N,0.276,K,A*32
$GNGGA,173157.00,3259.18723,N,09643.38293,W,1,12,0.73,211.0,M,-25.3,M,,*73
$PTH,179007*68
$PENV,179137,1004.91,228.61,-1.00*07
$PENV,179388,1004.91,228.59,-1.00*0A
$PENV,179638,1004.91,228.55,-1.00*08
$PENV,179889,1004.90,228.91,-1.00*05
$GNVTG,,T,,M,0.096,N,0.178,K,A*3C
$GNGGA,173158.00,3259.18718,N,09643.38296,W,1,12,0.75,210.8,M,-25.3,M,,*7E
$PTH,180008*61
$PENV,180139,1004.91,228.49,-1.00*05
$PENV,180390,1004.90,228.95,-1.00*04
$PENV,180640,1004.91,228.62,-1.00*05
$PENV,180890,1004.90,228.78,-1.00*0C
$GNVTG,,T,,M,0.139,N,0.257,K,A*36
$GNGGA,173159.00,3259.18713,N,09643.38297,W,1,12,0.68,210.7,M,-25.3,M,,*76
$PTH,181010*69
$PENV,181141,1004.91,228.56,-1.00*05
$PENV,181391,1004.91,228.71,-1.00*0F
$PENV,181642,1004.91,228.55,-1.00*02
$PENV,181892,1004.90,228.89,-1.00*01
$GNVTG,,T,,M,0.111,N,0.205,K,A*3B
$GNGGA,173200.00,3259.18708,N,09643.38298,W,1,12,0.75,210.8,M,-25.3,M,,*7F
$PTH,182017*6D
$PENV,182143,1004.91,228.61,-1.00*00
$PENV,182393,1004.91,228.55,-1.00*08
$PENV,182644,1004.91,228.60,-1.00*01
$PENV,182894,1004.90,228.86,-1.00*0B
$GNVTG,,T,,M,0.143,N,0.264,K,A*3B
$GNGGA,173201.00,3259.18702,N,09643.38298,W,1,12,0.69,210.9,M,-25.3,M,,*78
$PTH,183033*6A
$PENV,183145,1004.92,228.21,-1.00*00
$PENV,183395,1004.90,228.93,-1.00*04
$PENV,183645,1004.91,228.51,-1.00*03
$PENV,183896,1004.91,228.49,-1.00*0A
$GNVTG,,T,,M,0.267,N,0.494,K,A*37
$GNGGA,173202.00,3259.18702,N,09643.38296,W,1,12,0.71,211.0,M,-25.3,M,,*74
$PTH,184027*68
$PENV,184146,1004.90,228.82,-1.00*0F
$PENV,184397,1004.91,228.47,-1.00*09
$PENV,184647,1004.90,228.88,-1.00*03
$PENV,184898,1004.90,228.85,-1.00*02
$GNVTG,,T,,M,0.185,N,0.343,K,A*35
$GNGGA,173203.00,3259.18704,N,09643.38298,W,1,12,0.75,211.1,M,-25.3,M,,*78
$PTH,185007*6B
$PENV,185148,1004.89,229.22,-1.00*03
$PENV,185399,1004.87,229.65,-1.00*00
$PENV,185649,1004.88,229.41,-1.00*01
$PENV,185900,1004.89,229.19,-1.00*0F
$GNVTG,,T,,M,0.031,N,0.057,K,A*3D
$GNGGA,173204.00,3259.18700,N,09643.38302,W,1,12,0.69,211.0,M,-25.3,M,,*75
$PTH,186008*67
$PENV,186150,1004.88,229.30,-1.00*0B
$PENV,186401,1004.89,229.20,-1.00*0A
$PENV,186651,1004.90,228.85,-1.00*0B
$PENV,186901,1004.89,229.25,-1.00*02
$GNVTG,,T,,M,0.082,N,0.152,K,A*31
$GNGGA,173205.00,3259.18693,N,09643.38302,W,1,12,0.69,210.7,M,-25.3,M,,*79
$PTH,187008*66
$PENV,187152,1004.88,229.53,-1.00*0D
$PENV,187402,1004.89,229.08,-1.00*02
$PENV,187653,1004.88,229.26,-1.00*09
$PENV,187903,1004.89,229.16,-1.00*01
$GNVTG,,T,,M,0.108,N,0.200,K,A*36
$GNGGA,173206.00,3259.18684,N,09643.38303,W,1,12,0.78,210.3,M,-25.3,M,,*79
$PTH,188000*61
$PENV,188154,1004.89,229.15,-1.00*07
$PENV,188404,1004.88,229.29,-1.00*09
$PENV,188655,1004.89,229.13,-1.00*07
$PENV,188905,1004.88,229.30,-1.00*0D
$GNVTG,,T,,M,0.215,N,0.398,K,A*39
$GNGGA,173207.00,3259.18684,N,09643.38303,W,1,12,0.71,210.1,M,-25.3,M,,*73
$PTH,189006*66
$PENV,189155,1004.90,228.98,-1.00*0B
$PENV,189406,1004.89,229.14,-1.00*05
$PENV,189656,1004.88,229.35,-1.00*00
$PENV,189907,1004.89,229.16,-1.00*0B
$GNVTG,,T,,M,0.110,N,0.204,K,A*3B
$GNGGA,173208.00,3259.18687,N,09643.38304,W,1,12,0.71,209.9,M,-25.3,M,,*78
$PTH,190007*6F
$PENV,190157,1004.89,229.07,-1.00*0E
$PENV,190408,1004.87,229.65,-1.00*0B
$PENV,190658,1004.89,229.17,-1.00*07
$PENV,190909,1004.89,229.23,-1.00*0B
$GNVTG,327.13,T,,M,0.401,N,0.744,K,A*25
$GNGGA,173209.00,3259.18692,N,09643.38306,W,1,12,0.78,209.8,M,-25.3,M,,*77
$PTH,191008*61
$PENV,191159,1004.89,228.99,-1.00*07
$PENV,191410,1004.90,228.93,-1.00*0D
$PENV,191660,1004.88,229.34,-1.00*0D
$PENV,191910,1004.88,229.27,-1.00*07
$GNVTG,,T,,M,0.187,N,0.347,K,A*33
$GNGGA,173210.00,3259.18702,N,09643.38306,W,1,12,0.71,209.7,M,-25.3,M,,*71
$PTH,191997*6E
$PENV,192161,1004.90,228.96,-1.00*08
$PENV,192411,1004.90,228.82,-1.00*0F
$PENV,192662,1004.90,228.92,-1.00*08
$PENV,192912,1004.87,229.60,-1.00*0A
$GNVTG,218.75,T,,M,0.566,N,1.047,K,A*2D
$GNGGA,173211.00,3259.18694,N,09643.38306,W,1,12,0.71,209.7,M,-25.3,M,,*7E
$PTH,192998*62
$PENV,193163,1004.88,229.34,-1.00*0B
$PENV,193413,1004.89,229.21,-1.00*0C
$PENV,193664,1004.89,229.09,-1.00*04
$PENV,193914,1004.89,229.09,-1.00*0C
$GNVTG,,T,,M,0.272,N,0.503,K,A*3C
$GNGGA,173212.00,3259.18694,N,09643.38305,W,1,12,0.71,209.9,M,-25.3,M,,*70
$PTH,193990*6B
$PENV,194165,1004.89,229.08,-1.00*04
$PENV,194415,1004.88,229.31,-1.00*0D
$PENV,194665,1004.88,229.43,-1.00*0D
$PENV,194916,1004.88,229.30,-1.00*02
$GNVTG,252.74,T,,M,0.288,N,0.533,K,A*22
$GNGGA,173213.00,3259.18699,N,09643.38305,W,1,12,0.69,209.9,M,-25.3,M,,*75
$PTH,194996*6A
$PENV,195166,1004.88,229.34,-1.00*08
$PENV,195417,1004.87,229.76,-1.00*02
$PENV,195667,1004.89,229.08,-1.00*00
$PENV,195918,1004.89,229.01,-1.00*0E
$GNVTG,330.08,T,,M,0.426,N,0.790,K,A*25
$GNGGA,173214.00,3259.18706,N,09643.38303,W,1,12,0.69,209.8,M,-25.3,M,,*72
$PTH,196000*6E
$PENV,196168,1004.88,229.37,-1.00*06
$PENV,196419,1004.88,229.36,-1.00*04
$PENV,196669,1004.88,229.52,-1.00*03
$PENV,196919,1004.88,229.44,-1.00*0C
$GNVTG,335.29,T,,M,0.433,N,0.802,K,A*23
$GNGGA,173215.00,3259.18718,N,09643.38305,W,1,12,0.78,209.9,M,-25.3,M,,*7B
$PTH,197002*6D
$PENV,197170,1004.88,229.29,-1.00*01
$PENV,197420,1004.89,229.08,-1.00*03
$PENV,197671,1004.87,229.58,-1.00*0E
$PENV,197921,1004.89,229.13,-1.00*05
$GNVTG,,T,,M,0.218,N,0.403,K,A*31
$GNGGA,173216.00,3259.18720,N,09643.38307,W,1,12,0.69,209.7,M,-25.3,M,,*7F
$PTH,198005*65
$PENV,198172,1004.88,229.33,-1.00*07
$PENV,198422,1004.89,229.25,-1.00*01
$PENV,198673,1004.89,229.22,-1.00*00
$PENV,198923,1004.88,229.28,-1.00*01
$GNVTG,264.17,T,,M,0.356,N,0.659,K,A*2F
$GNGGA,173217.00,3259.18711,N,09643.38309,W,1,12,0.76,209.3,M,-25.3,M,,*78
$PTH,199008*69
$PENV,199174,1004.88,229.51,-1.00*04
$PENV,199424,1004.87,229.66,-1.00*0F
$PENV,199674,1004.88,229.48,-1.00*0B
$PENV,199925,1004.88,229.37,-1.00*08
$GNVTG,,T,,M,0.161,N,0.299,K,A*39
$GNGGA,173218.00,3259.18705,N,09643.38312,W,1,12,0.76,209.4,M,-25.3,M,,*7F
$PTH,200010*63
$PENV,200175,1004.89,229.24,-1.00*05
$PENV,200426,1004.89,229.07,-1.00*07
$PENV,200676,1004.87,229.68,-1.00*07
$PENV,200927,1004.88,229.40,-1.00*09
$GNVTG,,T,,M,0.202,N,0.374,K,A*3D
$GNGGA,173219.00,3259.18703,N,09643.38314,W,1,12,0.69,209.3,M,-25.3,M,,*77
$PTH,201000*63
$PENV,201177,1004.88,229.37,-1.00*05
$PENV,201428,1004.89,229.04,-1.00*0B
$PENV,201678,1004.88,229.48,-1.00*05
$PENV,201929,1004.87,229.61,-1.00*0A
$GNVTG,,T,,M,0.073,N,0.136,K,A*3D
$GNGGA,173220.00,3259.18698,N,09643.38313,W,1,12,0.69,209.2,M,-25.3,M,,*78
$PTH,202008*68
$PENV,202179,1004.89,229.24,-1.00*0B
$PENV,202429,1004.88,229.32,-1.00*0D
$PENV,202680,1004.88,229.30,-1.00*0E
$PENV,202930,1004.88,229.46,-1.00*0B
$GNVTG,,T,,M,0.131,N,0.243,K,A*3B
$GNGGA,173221.00,3259.18694,N,09643.38311,W,1,12,0.73,209.2,M,-25.3,M,,*7C
$PTH,202999*69
$PENV,203181,1004.88,229.34,-1.00*0D
$PENV,203431,1004.89,229.23,-1.00*04
$PENV,203682,1004.89,229.14,-1.00*0A
$PENV,203932,1004.88,229.47,-1.00*09
$GNVTG,,T,,M,0.105,N,0.195,K,A*34
$GNGGA,173222.00,3259.18690,N,09643.38311,W,1,12,0.69,209.2,M,-25.3,M,,*70
$PTH,204005*63
$PENV,204183,1004.89,229.01,-1.00*0F
$PENV,204433,1004.89,229.09,-1.00*09
$PENV,204683,1004.89,229.04,-1.00*0D
$PENV,204934,1004.90,228.95,-1.00*0F
$GNVTG,,T,,M,0.239,N,0.443,K,A*36
$GNGGA,173223.00,3259.18682,N,09643.38313,W,1,12,0.69,209.1,M,-25.3,M,,*73
$PTH,204999*6F
$PENV,205184,1004.89,229.19,-1.00*00
$PENV,205435,1004.90,228.91,-1.00*06
$PENV,205685,1004.89,229.13,-1.00*0C
$PENV,205936,1004.87,229.71,-1.00*01
$GNVTG,,T,,M,0.275,N,0.509,K,A*31
$GNGGA,173224.00,3259.18678,N,09643.38314,W,1,12,0.76,209.1,M,-25.3,M,,*78
$PTH,206010*65
$PENV,206186,1004.89,229.10,-1.00*08
$PENV,206437,1004.90,228.77,-1.00*0F
$PENV,206687,1004.89,229.21,-1.00*0C
$PENV,206938,1004.89,229.05,-1.00*01
$GNVTG,304.81,T,,M,0.391,N,0.725,K,A*26
$GNGGA,173225.00,3259.18681,N,09643.38317,W,1,12,0.69,209.0,M,-25.3,M,,*73
$PTH,207010*64
$PENV,207188,1004.89,229.17,-1.00*00
$PENV,207438,1004.87,229.57,-1.00*04
$PENV,207689,1004.90,228.95,-1.00*05
$PENV,207939,1004.90,228.75,-1.00*0F
$GNVTG,,T,,M,0.235,N,0.436,K,A*38
$GNGGA,173226.00,3259.18677,N,09643.38320,W,1,12,0.69,208.8,M,-25.3,M,,*74
$PTH,208003*69
$PENV,208190,1004.90,228.87,-1.00*06
$PENV,208440,1004.89,229.21,-1.00*0B
$PENV,208691,1004.89,229.17,-1.00*00
$PENV,208941,1004.88,229.27,-1.00*00
$GNVTG,,T,,M,0.160,N,0.296,K,A*37
$GNGGA,173227.00,3259.18666,N,09643.38320,W,1,12,0.70,208.7,M,-25.3,M,,*72
$PTH,209002*69
$PENV,209192,1004.89,229.21,-1.00*00
$PENV,209442,1004.87,229.58,-1.00*08
$PENV,209692,1004.88,229.37,-1.00*01
$PENV,209943,1004.87,229.67,-1.00*08
$GNVTG,,T,,M,0.178,N,0.329,K,A*3B
$GNGGA,173228.00,3259.18661,N,09643.38318,W,1,12,0.69,208.7,M,-25.3,M,,*79
$PTH,210006*65
$PENV,210193,1004.89,229.26,-1.00*0E
$PENV,210444,1004.89,229.15,-1.00*01
$PENV,210694,1004.87,229.54,-1.00*05
$PENV,210945,1004.88,229.50,-1.00*0D
$GNVTG,233.80,T,,M,0.405,N,0.750,K,A*2A
$GNGGA,173229.00,3259.18651,N,09643.38314,W,1,12,0.69,208.7,M,-25.3,M,,*77
$PTH,211025*65
$PENV,211195,1004.87,229.60,-1.00*05
$PENV,211446,1004.87,229.67,-1.00*09
$PENV,211696,1004.88,229.48,-1.00*04
$PENV,211947,1004.88,229.38,-1.00*00
$GNVTG,,T,,M,0.218,N,0.404,K,A*36
$GNGGA,173230.00,3259.18636,N,09643.38315,W,1,12,0.72,208.6,M,-25.3,M,,*74
$PTH,212009*68
$PENV,212197,1004.88,229.39,-1.00*07
$PENV,212447,1004.88,229.32,-1.00*04
$PENV,212698,1004.88,229.51,-1.00*01
$PENV,212948,1004.88,229.30,-1.00*04
$GNVTG,,T,,M,0.144,N,0.266,K,A*3E
$GNGGA,173231.00,3259.18624,N,09643.38316,W,1,12,0.69,208.5,M,-25.3,M,,*7C
$PTH,213025*67
$PENV,213199,1004.88,229.36,-1.00*07
$PENV,213449,1004.89,229.08,-1.00*03
$PENV,213700,1004.88,229.53,-1.00*02
$PENV,213950,1004.89,229.23,-1.00*0F
$GNVTG,212.11,T,,M,0.427,N,0.790,K,A*2D
$GNGGA,173232.00,3259.18613,N,09643.38318,W,1,12,0.69,208.7,M,-25.3,M,,*77
$PTH,214026*63
$PENV,214201,1004.90,228.88,-1.00*0F
$PENV,214451,1004.89,229.05,-1.00*00
$PENV,214701,1004.89,229.10,-1.00*02
$PENV,214952,1004.90,228.95,-1.00*0E
$GNVTG,,T,,M,0.079,N,0.147,K,A*31
$GNGGA,173233.00,3259.18602,N,09643.38321,W,1,12,0.75,208.6,M,-25.3,M,,*70
$PTH,215000*66
$PENV,215202,1004.87,229.63,-1.00*0F
$PENV,215453,1004.89,229.21,-1.00*05
$PENV,215703,1004.88,229.44,-1.00*01
$PENV,215954,1004.90,228.89,-1.00*04
$GNVTG,,T,,M,0.228,N,0.423,K,A*30
$GNGGA,173234.00,3259.18597,N,09643.38321,W,1,12,0.69,208.5,M,-25.3,M,,*76
$PTH,216010*64
$PENV,216204,1004.88,229.30,-1.00*03
$PENV,216455,1004.87,229.72,-1.00*08
$PENV,216705,1004.88,229.35,-1.00*02
$PENV,216955,1004.88,229.42,-1.00*09
